sourceId,districtGu,name,lat,lng,widthMeter,areaSquareMeter,ufid,nearestRoadDistanceM,nearestRoadSourceId,nearestRoadName,nearestRoadWidthMeter,nearestRoadPavement,nearestCrosswalkDistanceM,nearestCrosswalkSourceId,nearestCrosswalkLabel,nearCrosswalk30m,nearestFacilityDistanceM,nearestFacilitySourceId,nearestFacilityName,nearestFacilityCategory,nearFacility50m,duplicateClusterId,duplicateClusterSize,priority,priorityScore,reviewStatus,reviewReason,workset,decision,decisionConfidence,decisionReasonCode,kakaoMapUrl,kakaoRoadviewUrl
stairs:433,금정구,금정힐스테이트아파트,35.2397484,129.0815454,3.00,13.74,100035913004C03910100000000021642,0.0,busan-road-polygon:56618,,14.0,RDQ006,445.4,crosswalk:3287,제일김약국,false,318.4,barrier_free_facility:8496,장전1동 행정복지센터,행정·공공기관,false,STC-0397,1,P1,65,CANDIDATE,"도로 polygon과 겹침, 폭/면적 기준 큼",RESIDENTIAL_MANUAL_REVIEW,EXCLUDE_PRIVATE_RESIDENTIAL,HIGH,name_has_private_internal_keyword:아파트,"https://map.kakao.com/link/map/35.2397484,129.0815454","https://map.kakao.com/link/roadview/35.2397484,129.0815454"
stairs:467,금정구,장전현대2차아파트,35.2353889,129.0833580,3.50,136.39,100035913004C03910100000000021676,3.9,busan-road-polygon:56718,,10.8,RDQ006,263.0,crosswalk:3343,장전현대볼링센터,false,246.1,barrier_free_facility:8497,금샘복지센터,복지·돌봄,false,STC-0428,1,P1,55,CANDIDATE,"도로 polygon 5m 이내, 폭/면적 기준 큼",RESIDENTIAL_MANUAL_REVIEW,EXCLUDE_PRIVATE_RESIDENTIAL,HIGH,name_has_private_internal_keyword:아파트,"https://map.kakao.com/link/map/35.2353889,129.0833580","https://map.kakao.com/link/roadview/35.2353889,129.0833580"
stairs:728,금정구,부곡뉴그린아파트,35.2186403,129.0942344,0.00,6.50,100035913014C03910100000000022812,4.4,busan-road-polygon:54542,,4.4,RDQ006,360.8,crosswalk:3363,서동 서명초등학교,false,442.1,barrier_free_facility:9061,금정구 장애인복지관,복지·돌봄,false,STC-0651,1,P1,50,CANDIDATE,도로 polygon 5m 이내,RESIDENTIAL_MANUAL_REVIEW,EXCLUDE_PRIVATE_RESIDENTIAL,HIGH,name_has_private_internal_keyword:아파트,"https://map.kakao.com/link/map/35.2186403,129.0942344","https://map.kakao.com/link/roadview/35.2186403,129.0942344"
stairs:648,금정구,장미아파트,35.2230662,129.1114953,0.00,16.02,100035913015C03910100000000022572,5.5,busan-road-polygon:60026,,10.0,RDQ006,129.9,crosswalk:3330,금사여중,false,190.9,barrier_free_facility:9096,금동경로당,복지·돌봄,false,STC-0581,1,P3,25,LOW_PRIORITY,도로 polygon 20m 이내,RESIDENTIAL_MANUAL_REVIEW,EXCLUDE_PRIVATE_RESIDENTIAL,HIGH,name_has_private_internal_keyword:아파트,"https://map.kakao.com/link/map/35.2230662,129.1114953","https://map.kakao.com/link/roadview/35.2230662,129.1114953"
stairs:713,금정구,부곡뉴그린아파트,35.2195989,129.0953546,0.00,20.23,100035913014C03910100000000022789,8.6,busan-road-polygon:54246,,12.5,RDQ006,303.0,crosswalk:3259,서동초교,false,328.4,barrier_free_facility:9061,금정구 장애인복지관,복지·돌봄,false,STC-0639,1,P3,25,LOW_PRIORITY,도로 polygon 20m 이내,RESIDENTIAL_MANUAL_REVIEW,EXCLUDE_PRIVATE_RESIDENTIAL,HIGH,name_has_private_internal_keyword:아파트,"https://map.kakao.com/link/map/35.2195989,129.0953546","https://map.kakao.com/link/roadview/35.2195989,129.0953546"
stairs:643,금정구,서동아신아파트,35.2219333,129.1063448,0.00,10.50,100035913015C03910100000000022567,17.0,busan-road-polygon:60263,,10.0,RDQ006,189.9,crosswalk:3321,금정전자공고,false,533.6,barrier_free_facility:9098,금사회동동행정복지센터,행정·공공기관,false,STC-0577,1,P3,25,LOW_PRIORITY,도로 polygon 20m 이내,RESIDENTIAL_MANUAL_REVIEW,EXCLUDE_PRIVATE_RESIDENTIAL,HIGH,name_has_private_internal_keyword:아파트,"https://map.kakao.com/link/map/35.2219333,129.1063448","https://map.kakao.com/link/roadview/35.2219333,129.1063448"
stairs:422,금정구,SK뷰1단지아파트,35.2447525,129.0856094,4.00,16.08,100035913004C03910100000000021631,30.6,busan-road-polygon:56790,,24.3,RDQ006,222.9,crosswalk:3289,파고다맨션,false,123.7,charging_station:10,구서1동행정복지센터,전동보장구 충전소,false,STC-0387,1,P4,5,LOW_PRIORITY,"도로 polygon 20m 초과, 폭/면적 기준 큼",RESIDENTIAL_MANUAL_REVIEW,EXCLUDE_PRIVATE_RESIDENTIAL,HIGH,name_has_private_internal_keyword:아파트,"https://map.kakao.com/link/map/35.2447525,129.0856094","https://map.kakao.com/link/roadview/35.2447525,129.0856094"
stairs:464,금정구,금정산SK뷰아파트,35.2270821,129.0812698,4.00,17.50,100035913004C03910100000000021673,44.1,busan-road-polygon:52355,,16.8,RDQ006,167.0,crosswalk:3395,문영학원,false,78.7,charging_station:9,장전2동행전복지센터,전동보장구 충전소,false,STC-0426,1,P4,5,LOW_PRIORITY,"도로 polygon 20m 초과, 폭/면적 기준 큼",RESIDENTIAL_MANUAL_REVIEW,EXCLUDE_PRIVATE_RESIDENTIAL,HIGH,name_has_private_internal_keyword:아파트,"https://map.kakao.com/link/map/35.2270821,129.0812698","https://map.kakao.com/link/roadview/35.2270821,129.0812698"
stairs:470,금정구,금정산SK뷰아파트,35.2264484,129.0809962,26.00,21.91,100035913004C03910100000000021679,65.4,busan-road-polygon:52547,,28.3,RDQ006,96.8,crosswalk:3395,문영학원,false,144.1,charging_station:9,장전2동행전복지센터,전동보장구 충전소,false,STC-0431,1,P4,5,LOW_PRIORITY,"도로 polygon 20m 초과, 폭/면적 기준 큼",RESIDENTIAL_MANUAL_REVIEW,EXCLUDE_PRIVATE_RESIDENTIAL,HIGH,name_has_private_internal_keyword:아파트,"https://map.kakao.com/link/map/35.2264484,129.0809962","https://map.kakao.com/link/roadview/35.2264484,129.0809962"
stairs:469,금정구,금정산SK뷰아파트,35.2265646,129.0806175,4.20,20.79,100035913004C03910100000000021678,67.3,busan-road-polygon:52547,,28.3,RDQ006,87.7,crosswalk:3395,문영학원,false,135.0,charging_station:9,장전2동행전복지센터,전동보장구 충전소,false,STC-0430,1,P4,5,LOW_PRIORITY,"도로 polygon 20m 초과, 폭/면적 기준 큼",RESIDENTIAL_MANUAL_REVIEW,EXCLUDE_PRIVATE_RESIDENTIAL,HIGH,name_has_private_internal_keyword:아파트,"https://map.kakao.com/link/map/35.2265646,129.0806175","https://map.kakao.com/link/roadview/35.2265646,129.0806175"
stairs:459,금정구,금정산SK뷰아파트,35.2266410,129.0802011,3.20,21.15,100035913004C03910100000000021668,74.0,busan-road-polygon:52492,,28.3,RDQ006,89.0,crosswalk:3395,문영학원,false,141.2,charging_station:9,장전2동행전복지센터,전동보장구 충전소,false,STC-0421,1,P4,5,LOW_PRIORITY,"도로 polygon 20m 초과, 폭/면적 기준 큼",RESIDENTIAL_MANUAL_REVIEW,EXCLUDE_PRIVATE_RESIDENTIAL,HIGH,name_has_private_internal_keyword:아파트,"https://map.kakao.com/link/map/35.2266410,129.0802011","https://map.kakao.com/link/roadview/35.2266410,129.0802011"
stairs:477,금정구,금정산SK뷰아파트,35.2267174,129.0797807,3.00,15.01,100035913004C03910100000000021686,83.4,busan-road-polygon:52631,,26.0,RDQ006,96.7,crosswalk:3394,문영학원,false,157.3,charging_station:9,장전2동행전복지센터,전동보장구 충전소,false,STC-0437,1,P4,5,LOW_PRIORITY,"도로 polygon 20m 초과, 폭/면적 기준 큼",RESIDENTIAL_MANUAL_REVIEW,EXCLUDE_PRIVATE_RESIDENTIAL,HIGH,name_has_private_internal_keyword:아파트,"https://map.kakao.com/link/map/35.2267174,129.0797807","https://map.kakao.com/link/roadview/35.2267174,129.0797807"
stairs:744,금정구,현대아파트,35.2294284,129.0952545,0.00,8.50,100035913004C03910100000000022828,84.8,busan-road-polygon:55485,,4.0,RDQ006,270.6,crosswalk:3345,대동대학(대동간호전문대),false,237.1,barrier_free_facility:8910,부곡2동 행정복지센터,행정·공공기관,false,STC-0662,2,P4,0,LOW_PRIORITY,"도로 polygon 20m 초과, 15m 이내 계단 클러스터",RESIDENTIAL_MANUAL_REVIEW,EXCLUDE_PRIVATE_RESIDENTIAL,HIGH,name_has_private_internal_keyword:아파트,"https://map.kakao.com/link/map/35.2294284,129.0952545","https://map.kakao.com/link/roadview/35.2294284,129.0952545"
stairs:741,금정구,현대아파트,35.2293910,129.0953957,0.00,39.68,100035913004C03910100000000022825,91.8,busan-road-polygon:55539,,4.5,RDQ006,283.8,crosswalk:3345,대동대학(대동간호전문대),false,250.5,barrier_free_facility:8910,부곡2동 행정복지센터,행정·공공기관,false,STC-0662,2,P4,0,LOW_PRIORITY,"도로 polygon 20m 초과, 15m 이내 계단 클러스터",RESIDENTIAL_MANUAL_REVIEW,EXCLUDE_PRIVATE_RESIDENTIAL,HIGH,name_has_private_internal_keyword:아파트,"https://map.kakao.com/link/map/35.2293910,129.0953957","https://map.kakao.com/link/roadview/35.2293910,129.0953957"
stairs:812,기장군,정관휴먼시아아파트,35.3272164,129.1692233,0.00,58.41,100035909067C03910100000000022283,4.9,busan-road-polygon:81720,,28.0,RDQ006,22.0,crosswalk:1873,,true,328.2,public_toilet:1815,나무누리공원,화장실,false,STC-0724,1,P1,75,CANDIDATE,"도로 polygon 5m 이내, 횡단보도 30m 이내, 폭/면적 기준 큼",RESIDENTIAL_MANUAL_REVIEW,EXCLUDE_PRIVATE_RESIDENTIAL,HIGH,name_has_private_internal_keyword:아파트,"https://map.kakao.com/link/map/35.3272164,129.1692233","https://map.kakao.com/link/roadview/35.3272164,129.1692233"
stairs:1022,기장군,웨이브리즈아파트,35.2327004,129.2202447,0.00,6.72,100035913009C03910100000000022725,11.3,busan-road-polygon:106707,,25.0,RDQ006,221.0,crosswalk:2112,대변덕주빌라입구,false,203.9,barrier_free_facility:12399,한국전력공사기장지점,행정·공공기관,false,STC-0912,1,P3,25,LOW_PRIORITY,도로 polygon 20m 이내,RESIDENTIAL_MANUAL_REVIEW,EXCLUDE_PRIVATE_RESIDENTIAL,HIGH,name_has_private_internal_keyword:아파트,"https://map.kakao.com/link/map/35.2327004,129.2202447","https://map.kakao.com/link/roadview/35.2327004,129.2202447"
stairs:1021,기장군,웨이브리즈아파트,35.2326058,129.2203650,0.00,8.55,100035913009C03910100000000022724,15.7,busan-road-polygon:106707,,25.0,RDQ006,235.8,crosswalk:2112,대변덕주빌라입구,false,216.8,barrier_free_facility:12399,한국전력공사기장지점,행정·공공기관,false,STC-0911,1,P3,25,LOW_PRIORITY,도로 polygon 20m 이내,RESIDENTIAL_MANUAL_REVIEW,EXCLUDE_PRIVATE_RESIDENTIAL,HIGH,name_has_private_internal_keyword:아파트,"https://map.kakao.com/link/map/35.2326058,129.2203650","https://map.kakao.com/link/roadview/35.2326058,129.2203650"
stairs:814,기장군,정관휴먼시아아파트,35.3284319,129.1690590,0.00,27.47,100035909067C03910100000000022285,20.8,busan-road-polygon:81496,,26.0,RDQ006,33.9,crosswalk:1829,,false,333.9,public_toilet:1815,나무누리공원,화장실,false,STC-0726,1,P4,0,LOW_PRIORITY,도로 polygon 20m 초과,RESIDENTIAL_MANUAL_REVIEW,EXCLUDE_PRIVATE_RESIDENTIAL,HIGH,name_has_private_internal_keyword:아파트,"https://map.kakao.com/link/map/35.3284319,129.1690590","https://map.kakao.com/link/roadview/35.3284319,129.1690590"
stairs:791,기장군,정관롯데캐슬2차아파트,35.3306680,129.1680092,0.00,39.97,100035909067C03910100000000022262,39.7,busan-road-polygon:81293,,24.0,RDQ006,130.4,crosswalk:2035,정관신도시(#15),false,384.0,barrier_free_facility:12790,카페이니,음식·카페,false,STC-0708,1,P4,0,LOW_PRIORITY,도로 polygon 20m 초과,RESIDENTIAL_MANUAL_REVIEW,EXCLUDE_PRIVATE_RESIDENTIAL,HIGH,name_has_private_internal_keyword:아파트,"https://map.kakao.com/link/map/35.3306680,129.1680092","https://map.kakao.com/link/roadview/35.3306680,129.1680092"
stairs:1020,기장군,웨이브리즈아파트,35.2319520,129.2211620,0.00,18.80,100035913009C03910100000000022723,42.3,busan-road-polygon:106735,,25.0,RDQ006,337.4,crosswalk:2112,대변덕주빌라입구,false,199.9,barrier_free_facility:12404,공중화장실,화장실,false,STC-0910,1,P4,0,LOW_PRIORITY,도로 polygon 20m 초과,RESIDENTIAL_MANUAL_REVIEW,EXCLUDE_PRIVATE_RESIDENTIAL,HIGH,name_has_private_internal_keyword:아파트,"https://map.kakao.com/link/map/35.2319520,129.2211620","https://map.kakao.com/link/roadview/35.2319520,129.2211620"
stairs:815,기장군,현진에버빌아파트,35.3331938,129.1677493,0.00,23.33,100035909067C03910100000000022286,113.9,busan-road-polygon:82262,,24.0,RDQ006,182.4,crosswalk:2043,정관신도시(#10),false,156.3,barrier_free_facility:12772,일반음식점,음식·카페,false,STC-0727,1,P4,0,LOW_PRIORITY,도로 polygon 20m 초과,RESIDENTIAL_MANUAL_REVIEW,EXCLUDE_PRIVATE_RESIDENTIAL,HIGH,name_has_private_internal_keyword:아파트,"https://map.kakao.com/link/map/35.3331938,129.1677493","https://map.kakao.com/link/roadview/35.3331938,129.1677493"
stairs:1106,기장군,한빛아파트직원사택2단지,35.3377322,129.2828871,0.00,10.84,100035910062C03910100000000023232,182.9,busan-road-polygon:100224,,7.0,RDQ006,692.7,crosswalk:1888,(군도14호)7지점교차로,false,727.1,public_toilet:1989,장안천야구장,화장실,false,STC-0989,1,P4,0,LOW_PRIORITY,도로 polygon 20m 초과,RESIDENTIAL_MANUAL_REVIEW,EXCLUDE_PRIVATE_RESIDENTIAL,HIGH,name_has_private_internal_keyword:아파트,"https://map.kakao.com/link/map/35.3377322,129.2828871","https://map.kakao.com/link/roadview/35.3377322,129.2828871"
stairs:1116,남구,대연자이아파트,35.1300045,129.1018723,3.70,56.84,100035913045C03910100000000020892,0.7,busan-road-polygon:122798,,30.5,RDQ006,30.1,crosswalk:897,대천사거리,false,146.0,barrier_free_facility:5219,더맛 한우,음식·카페,false,STC-0999,1,P1,55,CANDIDATE,"도로 polygon 5m 이내, 폭/면적 기준 큼",RESIDENTIAL_MANUAL_REVIEW,EXCLUDE_PRIVATE_RESIDENTIAL,HIGH,name_has_private_internal_keyword:아파트,"https://map.kakao.com/link/map/35.1300045,129.1018723","https://map.kakao.com/link/roadview/35.1300045,129.1018723"
stairs:1149,남구,오륙도에스케이뷰아파트,35.1025819,129.1217733,2.30,64.88,100035913055C03910100000000020932,5.1,busan-road-polygon:112227,,11.4,RDQ006,556.5,crosswalk:787,오륙도중학교,false,153.7,public_toilet:653,해파랑길,화장실,false,STC-1026,1,P3,30,LOW_PRIORITY,"도로 polygon 20m 이내, 폭/면적 기준 큼",RESIDENTIAL_MANUAL_REVIEW,EXCLUDE_PRIVATE_RESIDENTIAL,HIGH,name_has_private_internal_keyword:아파트,"https://map.kakao.com/link/map/35.1025819,129.1217733","https://map.kakao.com/link/roadview/35.1025819,129.1217733"
stairs:1151,남구,오륙도에스케이뷰아파트,35.1016921,129.1218371,5.50,26.43,100035913055C03910100000000020934,13.1,busan-road-polygon:112188,,32.3,RDQ006,573.3,crosswalk:787,오륙도중학교,false,98.8,public_toilet:653,해파랑길,화장실,false,STC-1027,2,P3,30,LOW_PRIORITY,"도로 polygon 20m 이내, 폭/면적 기준 큼, 15m 이내 계단 클러스터",RESIDENTIAL_MANUAL_REVIEW,EXCLUDE_PRIVATE_RESIDENTIAL,HIGH,name_has_private_internal_keyword:아파트,"https://map.kakao.com/link/map/35.1016921,129.1218371","https://map.kakao.com/link/roadview/35.1016921,129.1218371"
stairs:1235,남구,자유4차아파트,35.1225774,129.0813852,5.80,36.99,100035913054C03910100000000021275,54.4,busan-road-polygon:113103,,24.9,RDQ006,80.9,crosswalk:977,감만로타리,false,289.4,public_toilet:679,감만2동행정복지센터,화장실,false,STC-1097,1,P4,5,LOW_PRIORITY,"도로 polygon 20m 초과, 폭/면적 기준 큼",RESIDENTIAL_MANUAL_REVIEW,EXCLUDE_PRIVATE_RESIDENTIAL,HIGH,name_has_private_internal_keyword:아파트,"https://map.kakao.com/link/map/35.1225774,129.0813852","https://map.kakao.com/link/roadview/35.1225774,129.0813852"
stairs:1144,남구,경동아파트,35.1164704,129.1165306,4.90,7.67,100035913055C03910100000000020927,65.3,busan-road-polygon:116698,,7.8,RDQ006,484.1,crosswalk:842,우리은행(용호지점),false,165.3,barrier_free_facility:5820,승진빌딩,복지·돌봄,false,STC-1021,1,P4,5,LOW_PRIORITY,"도로 polygon 20m 초과, 폭/면적 기준 큼",RESIDENTIAL_MANUAL_REVIEW,EXCLUDE_PRIVATE_RESIDENTIAL,HIGH,name_has_private_internal_keyword:아파트,"https://map.kakao.com/link/map/35.1164704,129.1165306","https://map.kakao.com/link/roadview/35.1164704,129.1165306"
stairs:1150,남구,오륙도에스케이뷰아파트,35.1017530,129.1218904,2.00,36.09,100035913055C03910100000000020933,21.7,busan-road-polygon:112227,,11.4,RDQ006,576.8,crosswalk:787,오륙도중학교,false,95.3,public_toilet:653,해파랑길,화장실,false,STC-1027,2,P4,0,LOW_PRIORITY,"도로 polygon 20m 초과, 15m 이내 계단 클러스터",RESIDENTIAL_MANUAL_REVIEW,EXCLUDE_PRIVATE_RESIDENTIAL,HIGH,name_has_private_internal_keyword:아파트,"https://map.kakao.com/link/map/35.1017530,129.1218904","https://map.kakao.com/link/roadview/35.1017530,129.1218904"
stairs:1160,남구,오륙도에스케이뷰아파트,35.1036005,129.1168397,1.00,27.24,100035913055C03910100000000020943,91.9,busan-road-polygon:112185,,10.2,RDQ006,138.7,crosswalk:785,오륙도초등학교,false,326.4,barrier_free_facility:5845,오륙도대게,음식·카페,false,STC-1034,1,P4,0,LOW_PRIORITY,도로 polygon 20m 초과,RESIDENTIAL_MANUAL_REVIEW,EXCLUDE_PRIVATE_RESIDENTIAL,HIGH,name_has_private_internal_keyword:아파트,"https://map.kakao.com/link/map/35.1036005,129.1168397","https://map.kakao.com/link/roadview/35.1036005,129.1168397"
stairs:1338,동구,아르미나아파트,35.1256980,129.0374889,5.40,98.78,100035913042C03910100000000021420,10.2,busan-road-polygon:125047,,11.3,RDQ006,173.7,crosswalk:1672,수정동묘심사앞,false,251.7,public_toilet:204,수정1배수지공원,화장실,false,STC-1199,1,P3,30,LOW_PRIORITY,"도로 polygon 20m 이내, 폭/면적 기준 큼",RESIDENTIAL_MANUAL_REVIEW,EXCLUDE_PRIVATE_RESIDENTIAL,HIGH,name_has_private_internal_keyword:아파트,"https://map.kakao.com/link/map/35.1256980,129.0374889","https://map.kakao.com/link/roadview/35.1256980,129.0374889"
stairs:1501,동래구,부산안락4차LH휴먼시아아파트,35.1984856,129.1076050,0.00,8.01,100035913025C03910100000000040107,0.0,busan-road-polygon:141606,,12.0,RDQ006,282.6,crosswalk:1069,충렬초교입구,false,238.2,charging_station:69,안락2동행정복지센터,전동보장구 충전소,false,STC-1344,1,P1,60,CANDIDATE,도로 polygon과 겹침,RESIDENTIAL_MANUAL_REVIEW,EXCLUDE_PRIVATE_RESIDENTIAL,HIGH,name_has_private_internal_keyword:아파트,"https://map.kakao.com/link/map/35.1984856,129.1076050","https://map.kakao.com/link/roadview/35.1984856,129.1076050"
stairs:1400,동래구,동래센트럴파크하이츠2차,35.2106055,129.0852180,2.60,12.62,100035913014C03910100000000021735,4.3,busan-road-polygon:135733,,18.5,RDQ006,237.5,crosswalk:1097,명륜PB,false,318.6,barrier_free_facility:4669,"재단법인원불교부산울산교구,사회복지법인원광",복지·돌봄,false,STC-1255,2,P1,50,CANDIDATE,"도로 polygon 5m 이내, 15m 이내 계단 클러스터",RESIDENTIAL_MANUAL_REVIEW,EXCLUDE_PRIVATE_RESIDENTIAL,HIGH,name_has_private_internal_keyword:하이츠,"https://map.kakao.com/link/map/35.2106055,129.0852180","https://map.kakao.com/link/roadview/35.2106055,129.0852180"
stairs:1399,동래구,동래센트럴파크하이츠2차,35.2106252,129.0852034,4.20,12.26,100035913014C03910100000000021734,6.7,busan-road-polygon:135733,,18.5,RDQ006,236.2,crosswalk:1097,명륜PB,false,316.2,barrier_free_facility:4669,"재단법인원불교부산울산교구,사회복지법인원광",복지·돌봄,false,STC-1255,2,P3,30,LOW_PRIORITY,"도로 polygon 20m 이내, 폭/면적 기준 큼, 15m 이내 계단 클러스터",RESIDENTIAL_MANUAL_REVIEW,EXCLUDE_PRIVATE_RESIDENTIAL,HIGH,name_has_private_internal_keyword:하이츠,"https://map.kakao.com/link/map/35.2106252,129.0852034","https://map.kakao.com/link/roadview/35.2106252,129.0852034"
stairs:1393,동래구,명륜동SKVIEW아파트,35.2144927,129.0843488,4.00,44.50,100035913014C03910100000000021728,9.9,busan-road-polygon:135254,,10.5,RDQ006,179.9,crosswalk:1108,명륜주택,false,272.3,barrier_free_facility:4669,"재단법인원불교부산울산교구,사회복지법인원광",복지·돌봄,false,STC-1250,1,P3,30,LOW_PRIORITY,"도로 polygon 20m 이내, 폭/면적 기준 큼",RESIDENTIAL_MANUAL_REVIEW,EXCLUDE_PRIVATE_RESIDENTIAL,HIGH,name_has_private_internal_keyword:아파트,"https://map.kakao.com/link/map/35.2144927,129.0843488","https://map.kakao.com/link/roadview/35.2144927,129.0843488"
stairs:1498,동래구,센텀더블루하이츠,35.1923103,129.1132197,0.00,25.56,100035913025C03910100000000040081,5.3,busan-road-polygon:142468,,3.0,RDQ006,236.0,crosswalk:1167,원동교주유소,false,275.2,charging_station:64,동래구 장애인협회,전동보장구 충전소,false,STC-1341,1,P3,25,LOW_PRIORITY,도로 polygon 20m 이내,RESIDENTIAL_MANUAL_REVIEW,EXCLUDE_PRIVATE_RESIDENTIAL,HIGH,name_has_private_internal_keyword:하이츠,"https://map.kakao.com/link/map/35.1923103,129.1132197","https://map.kakao.com/link/roadview/35.1923103,129.1132197"
stairs:1533,동래구,아시아드코오롱하늘채아파트,35.1941068,129.0655586,0.00,4.48,100035913023C03910100000000040244,6.6,busan-road-polygon:139165,,8.0,RDQ006,123.9,crosswalk:1172,사직운동장삼거리,false,59.1,public_toilet:1729,부산현대주유소,화장실,false,STC-1375,1,P3,25,LOW_PRIORITY,도로 polygon 20m 이내,RESIDENTIAL_MANUAL_REVIEW,EXCLUDE_PRIVATE_RESIDENTIAL,HIGH,name_has_private_internal_keyword:아파트,"https://map.kakao.com/link/map/35.1941068,129.0655586","https://map.kakao.com/link/roadview/35.1941068,129.0655586"
stairs:1451,동래구,명륜2차IPARK1단지아파트,35.2158976,129.0878874,0.80,29.84,100035913014C03910100000000021800,7.2,busan-road-polygon:135778,,25.0,RDQ006,45.8,crosswalk:1140,명륜아이파크2차 106동,false,208.3,restaurant:138,[백년가게]온천입구기장곰장어,음식·카페,false,STC-1302,1,P3,25,LOW_PRIORITY,도로 polygon 20m 이내,RESIDENTIAL_MANUAL_REVIEW,EXCLUDE_PRIVATE_RESIDENTIAL,HIGH,name_has_private_internal_keyword:아파트,"https://map.kakao.com/link/map/35.2158976,129.0878874","https://map.kakao.com/link/roadview/35.2158976,129.0878874"
stairs:1482,동래구,e편한세상동래명장1단지아파트,35.2049584,129.1088482,0.00,4.46,100035913015C03910100000000022539,9.7,busan-road-polygon:137900,,18.0,RDQ006,51.6,crosswalk:1059,명장동SK2차아파트(혜화여중-충렬고 삼거리),false,262.9,barrier_free_facility:4429,명장1동새마을금고,의료·보건,false,STC-1328,1,P3,25,LOW_PRIORITY,도로 polygon 20m 이내,RESIDENTIAL_MANUAL_REVIEW,EXCLUDE_PRIVATE_RESIDENTIAL,HIGH,name_has_private_internal_keyword:아파트,"https://map.kakao.com/link/map/35.2049584,129.1088482","https://map.kakao.com/link/roadview/35.2049584,129.1088482"
stairs:1558,동래구,부산안락4차LH휴먼시아아파트,35.1990591,129.1083633,0.00,33.17,100035913025C03910100000000041877,9.9,busan-road-polygon:141605,,14.8,RDQ006,206.3,crosswalk:1069,충렬초교입구,false,212.0,charging_station:69,안락2동행정복지센터,전동보장구 충전소,false,STC-1398,1,P3,25,LOW_PRIORITY,도로 polygon 20m 이내,RESIDENTIAL_MANUAL_REVIEW,EXCLUDE_PRIVATE_RESIDENTIAL,HIGH,name_has_private_internal_keyword:아파트,"https://map.kakao.com/link/map/35.1990591,129.1083633","https://map.kakao.com/link/roadview/35.1990591,129.1083633"
stairs:1485,동래구,e편한세상동래명장1단지아파트,35.2057264,129.1068142,0.00,5.04,100035913015C03910100000000022542,12.6,busan-road-polygon:137855,,22.0,RDQ006,156.7,crosswalk:1075,창신아파트,false,144.5,barrier_free_facility:4429,명장1동새마을금고,의료·보건,false,STC-1330,2,P3,25,LOW_PRIORITY,"도로 polygon 20m 이내, 15m 이내 계단 클러스터",RESIDENTIAL_MANUAL_REVIEW,EXCLUDE_PRIVATE_RESIDENTIAL,HIGH,name_has_private_internal_keyword:아파트,"https://map.kakao.com/link/map/35.2057264,129.1068142","https://map.kakao.com/link/roadview/35.2057264,129.1068142"
stairs:1484,동래구,e편한세상동래명장1단지아파트,35.2057378,129.1068191,0.00,21.37,100035913015C03910100000000022541,12.8,busan-road-polygon:137855,,22.0,RDQ006,157.4,crosswalk:1075,창신아파트,false,145.8,barrier_free_facility:4429,명장1동새마을금고,의료·보건,false,STC-1330,2,P3,25,LOW_PRIORITY,"도로 polygon 20m 이내, 15m 이내 계단 클러스터",RESIDENTIAL_MANUAL_REVIEW,EXCLUDE_PRIVATE_RESIDENTIAL,HIGH,name_has_private_internal_keyword:아파트,"https://map.kakao.com/link/map/35.2057378,129.1068191","https://map.kakao.com/link/roadview/35.2057378,129.1068191"
stairs:1532,동래구,사직롯데캐슬더클래식아파트,35.1974052,129.0687168,0.00,24.51,100035913023C03910100000000040241,14.7,busan-road-polygon:139525,,1.5,RDQ005,175.8,crosswalk:1209,여명중학교,false,248.8,barrier_free_facility:5071,사직빌딩,의료·보건,false,STC-1374,1,P3,25,LOW_PRIORITY,도로 polygon 20m 이내,RESIDENTIAL_MANUAL_REVIEW,EXCLUDE_PRIVATE_RESIDENTIAL,HIGH,name_has_private_internal_keyword:아파트,"https://map.kakao.com/link/map/35.1974052,129.0687168","https://map.kakao.com/link/roadview/35.1974052,129.0687168"
stairs:1401,동래구,동래센트럴파크하이츠2차,35.2115008,129.0855013,4.70,22.50,100035913014C03910100000000021736,92.7,busan-road-polygon:135733,,18.5,RDQ006,281.6,crosswalk:1097,명륜PB,false,287.3,barrier_free_facility:4669,"재단법인원불교부산울산교구,사회복지법인원광",복지·돌봄,false,STC-1256,1,P4,5,LOW_PRIORITY,"도로 polygon 20m 초과, 폭/면적 기준 큼",RESIDENTIAL_MANUAL_REVIEW,EXCLUDE_PRIVATE_RESIDENTIAL,HIGH,name_has_private_internal_keyword:하이츠,"https://map.kakao.com/link/map/35.2115008,129.0855013","https://map.kakao.com/link/roadview/35.2115008,129.0855013"
stairs:1445,동래구,명륜2차IPARK1단지아파트,35.2161900,129.0906814,3.00,32.99,100035913014C03910100000000021792,136.6,busan-road-polygon:54113,,2.0,RDQ006,301.5,crosswalk:1140,명륜아이파크2차 106동,false,435.2,restaurant:138,[백년가게]온천입구기장곰장어,음식·카페,false,STC-1296,1,P4,5,LOW_PRIORITY,"도로 polygon 20m 초과, 폭/면적 기준 큼",RESIDENTIAL_MANUAL_REVIEW,EXCLUDE_PRIVATE_RESIDENTIAL,HIGH,name_has_private_internal_keyword:아파트,"https://map.kakao.com/link/map/35.2161900,129.0906814","https://map.kakao.com/link/roadview/35.2161900,129.0906814"
stairs:1453,동래구,명륜2차IPARK1단지아파트,35.2159532,129.0899664,2.70,15.69,100035913014C03910100000000021802,143.4,busan-road-polygon:135791,,25.0,RDQ006,235.0,crosswalk:1140,명륜아이파크2차 106동,false,378.4,restaurant:138,[백년가게]온천입구기장곰장어,음식·카페,false,STC-1304,1,P4,0,LOW_PRIORITY,도로 polygon 20m 초과,RESIDENTIAL_MANUAL_REVIEW,EXCLUDE_PRIVATE_RESIDENTIAL,HIGH,name_has_private_internal_keyword:아파트,"https://map.kakao.com/link/map/35.2159532,129.0899664","https://map.kakao.com/link/roadview/35.2159532,129.0899664"
stairs:1461,동래구,명륜2차IPARK1단지아파트,35.2163056,129.0903751,0.90,22.80,100035913014C03910100000000021814,152.0,busan-road-polygon:53633,,2.0,RDQ006,275.4,crosswalk:1140,명륜아이파크2차 106동,false,405.4,restaurant:138,[백년가게]온천입구기장곰장어,음식·카페,false,STC-1311,1,P4,0,LOW_PRIORITY,도로 polygon 20m 초과,RESIDENTIAL_MANUAL_REVIEW,EXCLUDE_PRIVATE_RESIDENTIAL,HIGH,name_has_private_internal_keyword:아파트,"https://map.kakao.com/link/map/35.2163056,129.0903751","https://map.kakao.com/link/roadview/35.2163056,129.0903751"
stairs:1674,부산진구,일성인포아파트,35.1645159,129.0515372,0.00,23.31,100035913033C03910100000000008968,0.0,busan-road-polygon:147152,,11.0,RDQ006,26.7,crosswalk:1248,월마트,true,123.1,public_toilet:579,이마트트레이더스 서면점,화장실,false,STC-1508,1,P1,80,CANDIDATE,"도로 polygon과 겹침, 횡단보도 30m 이내",RESIDENTIAL_MANUAL_REVIEW,EXCLUDE_PRIVATE_RESIDENTIAL,HIGH,name_has_private_internal_keyword:아파트,"https://map.kakao.com/link/map/35.1645159,129.0515372","https://map.kakao.com/link/roadview/35.1645159,129.0515372"
stairs:1680,부산진구,신동아오피스텔,35.1579226,129.0536101,0.00,41.58,100035913033C03910100000000008974,5.0,busan-road-polygon:148498,,56.0,RDQ006,91.4,crosswalk:1514,부전로타리,false,123.5,barrier_free_facility:3729,일반음식점,음식·카페,false,STC-1514,1,P1,50,CANDIDATE,도로 polygon 5m 이내,RESIDENTIAL_MANUAL_REVIEW,EXCLUDE_PRIVATE_RESIDENTIAL,HIGH,name_has_private_internal_keyword:오피스텔,"https://map.kakao.com/link/map/35.1579226,129.0536101","https://map.kakao.com/link/roadview/35.1579226,129.0536101"
stairs:1673,부산진구,개금우드빌아파트,35.1628528,129.0249660,0.00,68.40,100035913031C03910100000000008967,13.1,busan-road-polygon:149514,,9.3,RDQ006,348.0,crosswalk:1298,개원초교,false,155.0,public_toilet:559,개금파출소,화장실,false,STC-1507,1,P3,30,LOW_PRIORITY,"도로 polygon 20m 이내, 폭/면적 기준 큼",RESIDENTIAL_MANUAL_REVIEW,EXCLUDE_PRIVATE_RESIDENTIAL,HIGH,name_has_private_internal_keyword:아파트,"https://map.kakao.com/link/map/35.1628528,129.0249660","https://map.kakao.com/link/roadview/35.1628528,129.0249660"
stairs:1742,부산진구,가야삼한사랑채아파트,35.1546984,129.0408792,0.00,27.22,100035913032C03910100000000021339,8.7,busan-road-polygon:153687,,3.0,RDQ006,196.4,crosswalk:1301,가야1동국민아파트,false,74.1,public_toilet:481,부산진구종합재가노인서비스센터,화장실,false,STC-1576,1,P3,25,LOW_PRIORITY,도로 polygon 20m 이내,RESIDENTIAL_MANUAL_REVIEW,EXCLUDE_PRIVATE_RESIDENTIAL,HIGH,name_has_private_internal_keyword:아파트,"https://map.kakao.com/link/map/35.1546984,129.0408792","https://map.kakao.com/link/roadview/35.1546984,129.0408792"
stairs:1793,부산진구,한일맨션,35.1783128,129.0548408,0.00,14.09,100035913023C03910100000000040254,19.8,busan-road-polygon:159129,,2.7,RDQ006,113.6,crosswalk:1424,원당골입구,false,282.5,barrier_free_facility:3974,온산빌딩,의료·보건,false,STC-1623,3,P3,25,LOW_PRIORITY,"도로 polygon 20m 이내, 15m 이내 계단 클러스터",RESIDENTIAL_MANUAL_REVIEW,EXCLUDE_PRIVATE_RESIDENTIAL,HIGH,name_has_private_internal_keyword:맨션,"https://map.kakao.com/link/map/35.1783128,129.0548408","https://map.kakao.com/link/roadview/35.1783128,129.0548408"
stairs:1815,부산진구,한일맨션,35.1783309,129.0546827,0.00,14.12,100035913023C03910100000000040321,32.2,busan-road-polygon:159129,,2.7,RDQ006,101.8,crosswalk:1424,원당골입구,false,285.3,barrier_free_facility:3974,온산빌딩,의료·보건,false,STC-1623,3,P4,0,LOW_PRIORITY,"도로 polygon 20m 초과, 15m 이내 계단 클러스터",RESIDENTIAL_MANUAL_REVIEW,EXCLUDE_PRIVATE_RESIDENTIAL,HIGH,name_has_private_internal_keyword:맨션,"https://map.kakao.com/link/map/35.1783309,129.0546827","https://map.kakao.com/link/roadview/35.1783309,129.0546827"
stairs:1810,부산진구,연지청구1차아파트,35.1763123,129.0556922,0.00,22.37,100035913023C03910100000000040278,38.3,busan-road-polygon:158509,,8.0,RDQ006,102.1,crosswalk:1426,연지한신타워입구,false,92.1,barrier_free_facility:3974,온산빌딩,의료·보건,false,STC-1638,1,P4,0,LOW_PRIORITY,도로 polygon 20m 초과,RESIDENTIAL_MANUAL_REVIEW,EXCLUDE_PRIVATE_RESIDENTIAL,HIGH,name_has_private_internal_keyword:아파트,"https://map.kakao.com/link/map/35.1763123,129.0556922","https://map.kakao.com/link/roadview/35.1763123,129.0556922"
stairs:1814,부산진구,한일맨션,35.1783983,129.0542169,0.00,13.41,100035913023C03910100000000040320,42.6,busan-road-polygon:158588,,3.0,RDQ006,74.2,crosswalk:1424,원당골입구,false,242.6,public_toilet:581,성지지구대,화장실,false,STC-1641,1,P4,0,LOW_PRIORITY,도로 polygon 20m 초과,RESIDENTIAL_MANUAL_REVIEW,EXCLUDE_PRIVATE_RESIDENTIAL,HIGH,name_has_private_internal_keyword:맨션,"https://map.kakao.com/link/map/35.1783983,129.0542169","https://map.kakao.com/link/roadview/35.1783983,129.0542169"
stairs:1813,부산진구,한일맨션,35.1784004,129.0545693,0.00,13.77,100035913023C03910100000000040319,45.0,busan-road-polygon:159129,,2.7,RDQ006,97.4,crosswalk:1424,원당골입구,false,273.5,public_toilet:581,성지지구대,화장실,false,STC-1623,3,P4,0,LOW_PRIORITY,"도로 polygon 20m 초과, 15m 이내 계단 클러스터",RESIDENTIAL_MANUAL_REVIEW,EXCLUDE_PRIVATE_RESIDENTIAL,HIGH,name_has_private_internal_keyword:맨션,"https://map.kakao.com/link/map/35.1784004,129.0545693","https://map.kakao.com/link/roadview/35.1784004,129.0545693"
stairs:1817,부산진구,한일맨션,35.1783924,129.0543882,0.00,14.19,100035913023C03910100000000040323,52.2,busan-road-polygon:158588,,3.0,RDQ006,84.3,crosswalk:1424,원당골입구,false,257.8,public_toilet:581,성지지구대,화장실,false,STC-1643,1,P4,0,LOW_PRIORITY,도로 polygon 20m 초과,RESIDENTIAL_MANUAL_REVIEW,EXCLUDE_PRIVATE_RESIDENTIAL,HIGH,name_has_private_internal_keyword:맨션,"https://map.kakao.com/link/map/35.1783924,129.0543882","https://map.kakao.com/link/roadview/35.1783924,129.0543882"
stairs:1843,북구,금곡6단지주공아파트,35.2486799,129.0150484,0.00,60.94,100035913001C03910100000000008683,0.0,busan-road-polygon:166580,,21.0,RDQ006,71.7,crosswalk:529,금곡신금초교입구,false,166.8,barrier_free_facility:6060,금곡월드프라자,의료·보건,false,STC-1663,1,P1,65,CANDIDATE,"도로 polygon과 겹침, 폭/면적 기준 큼",RESIDENTIAL_MANUAL_REVIEW,EXCLUDE_PRIVATE_RESIDENTIAL,HIGH,name_has_private_internal_keyword:아파트|주공,"https://map.kakao.com/link/map/35.2486799,129.0150484","https://map.kakao.com/link/roadview/35.2486799,129.0150484"
stairs:2011,북구,삼정그린코아아파트,35.1939690,128.9946157,0.00,1.08,100035816030C03910100000000009422,0.0,busan-road-polygon:168946,,9.6,RDQ006,135.0,crosswalk:2242,,false,58.9,barrier_free_facility:6434,부산북부교육청,행정·공공기관,false,STC-1811,1,P1,60,CANDIDATE,도로 polygon과 겹침,RESIDENTIAL_MANUAL_REVIEW,EXCLUDE_PRIVATE_RESIDENTIAL,HIGH,name_has_private_internal_keyword:아파트,"https://map.kakao.com/link/map/35.1939690,128.9946157","https://map.kakao.com/link/roadview/35.1939690,128.9946157"
stairs:2009,북구,삼정그린코아아파트,35.1921788,128.9929074,0.00,0.33,100035816030C03910100000000009419,3.7,busan-road-polygon:169572,,5.5,RDQ006,42.0,crosswalk:2223,성금당(성일교회),false,195.0,barrier_free_facility:11566,모라동 곡상골경로당,복지·돌봄,false,STC-1809,1,P1,50,CANDIDATE,도로 polygon 5m 이내,RESIDENTIAL_MANUAL_REVIEW,EXCLUDE_PRIVATE_RESIDENTIAL,HIGH,name_has_private_internal_keyword:아파트,"https://map.kakao.com/link/map/35.1921788,128.9929074","https://map.kakao.com/link/roadview/35.1921788,128.9929074"
stairs:2034,북구,금곡9단지주공아파트,35.2565650,129.0140368,0.00,84.25,100035909091C03910100000000010275,6.6,busan-road-polygon:161841,,20.0,RDQ006,17.1,crosswalk:547,금곡주공905동앞,true,58.1,barrier_free_facility:6054,로제타스톤영어,음식·카페,false,STC-1830,1,P2,50,CANDIDATE,"도로 polygon 20m 이내, 횡단보도 30m 이내, 폭/면적 기준 큼",RESIDENTIAL_MANUAL_REVIEW,EXCLUDE_PRIVATE_RESIDENTIAL,HIGH,name_has_private_internal_keyword:아파트|주공,"https://map.kakao.com/link/map/35.2565650,129.0140368","https://map.kakao.com/link/roadview/35.2565650,129.0140368"
stairs:2035,북구,금곡4단지주공아파트,35.2515420,129.0143663,0.00,155.94,100035909091C03910100000000010276,8.6,busan-road-polygon:161875,,21.0,RDQ006,18.7,crosswalk:550,금곡주공411동앞,true,213.1,barrier_free_facility:6034,금곡동사무소,행정·공공기관,false,STC-1831,1,P2,50,CANDIDATE,"도로 polygon 20m 이내, 횡단보도 30m 이내, 폭/면적 기준 큼",RESIDENTIAL_MANUAL_REVIEW,EXCLUDE_PRIVATE_RESIDENTIAL,HIGH,name_has_private_internal_keyword:아파트|주공,"https://map.kakao.com/link/map/35.2515420,129.0143663","https://map.kakao.com/link/roadview/35.2515420,129.0143663"
stairs:1827,북구,금곡6단지주공아파트,35.2477563,129.0151946,0.00,56.36,100035913001C03910100000000008665,8.1,busan-road-polygon:166578,,21.0,RDQ006,173.3,crosswalk:529,금곡신금초교입구,false,217.2,charging_station:97,율리역,전동보장구 충전소,false,STC-1653,1,P3,30,LOW_PRIORITY,"도로 polygon 20m 이내, 폭/면적 기준 큼",RESIDENTIAL_MANUAL_REVIEW,EXCLUDE_PRIVATE_RESIDENTIAL,HIGH,name_has_private_internal_keyword:아파트|주공,"https://map.kakao.com/link/map/35.2477563,129.0151946","https://map.kakao.com/link/roadview/35.2477563,129.0151946"
stairs:1894,북구,만덕현대아파트,35.2123967,129.0291537,0.00,179.95,100035913012C03910100000000008768,11.4,busan-road-polygon:168444,거제-포항선,44.0,RDQ006,81.4,crosswalk:570,만덕현대아파트앞,false,103.1,barrier_free_facility:6198,초아재활주야간보호센터,복지·돌봄,false,STC-1706,1,P3,30,LOW_PRIORITY,"도로 polygon 20m 이내, 폭/면적 기준 큼",RESIDENTIAL_MANUAL_REVIEW,EXCLUDE_PRIVATE_RESIDENTIAL,HIGH,name_has_private_internal_keyword:아파트,"https://map.kakao.com/link/map/35.2123967,129.0291537","https://map.kakao.com/link/roadview/35.2123967,129.0291537"
stairs:1822,북구,금곡2단지주공아파트,35.2591074,129.0150103,0.00,58.47,100035909091C03910100000000008624,16.1,busan-road-polygon:161839,,20.0,RDQ006,109.5,crosswalk:514,금곡주공아파트8단지앞(801동),false,61.0,public_toilet:969,금곡종합사회복지관 화장실,화장실,false,STC-1648,1,P3,30,LOW_PRIORITY,"도로 polygon 20m 이내, 폭/면적 기준 큼",RESIDENTIAL_MANUAL_REVIEW,EXCLUDE_PRIVATE_RESIDENTIAL,HIGH,name_has_private_internal_keyword:아파트|주공,"https://map.kakao.com/link/map/35.2591074,129.0150103","https://map.kakao.com/link/roadview/35.2591074,129.0150103"
stairs:2006,북구,삼정그린코아아파트,35.1948120,128.9948929,0.00,52.71,100035816030C03910100000000009416,16.5,busan-road-polygon:168942,,7.6,RDQ006,97.0,crosswalk:2242,,false,77.0,barrier_free_facility:6434,부산북부교육청,행정·공공기관,false,STC-1807,2,P3,30,LOW_PRIORITY,"도로 polygon 20m 이내, 폭/면적 기준 큼, 15m 이내 계단 클러스터",RESIDENTIAL_MANUAL_REVIEW,EXCLUDE_PRIVATE_RESIDENTIAL,HIGH,name_has_private_internal_keyword:아파트,"https://map.kakao.com/link/map/35.1948120,128.9948929","https://map.kakao.com/link/roadview/35.1948120,128.9948929"
stairs:2032,북구,금곡7단지주공아파트,35.2577435,129.0127924,0.00,123.60,100035909091C03910100000000010271,18.6,busan-road-polygon:162007,부산-강릉선,30.0,RDQ006,145.3,crosswalk:710,금곡이안APT,false,106.2,charging_station:95,동원역,전동보장구 충전소,false,STC-1828,1,P3,30,LOW_PRIORITY,"도로 polygon 20m 이내, 폭/면적 기준 큼",RESIDENTIAL_MANUAL_REVIEW,EXCLUDE_PRIVATE_RESIDENTIAL,HIGH,name_has_private_internal_keyword:아파트|주공,"https://map.kakao.com/link/map/35.2577435,129.0127924","https://map.kakao.com/link/roadview/35.2577435,129.0127924"
stairs:1907,북구,만덕럭키2차아파트,35.2109397,129.0257324,0.00,37.48,100035913012C03910100000000008781,7.2,busan-road-polygon:162753,,24.5,RDQ006,126.3,crosswalk:575,만덕벽산아파트,false,145.5,public_toilet:1004,개나리공원 화장실,화장실,false,STC-1718,1,P3,25,LOW_PRIORITY,도로 polygon 20m 이내,RESIDENTIAL_MANUAL_REVIEW,EXCLUDE_PRIVATE_RESIDENTIAL,HIGH,name_has_private_internal_keyword:아파트,"https://map.kakao.com/link/map/35.2109397,129.0257324","https://map.kakao.com/link/roadview/35.2109397,129.0257324"
stairs:2010,북구,삼정그린코아아파트,35.1949004,128.9954933,0.00,17.12,100035816030C03910100000000009421,7.6,busan-road-polygon:161188,,12.0,RDQ006,149.6,crosswalk:2242,,false,84.9,barrier_free_facility:6434,부산북부교육청,행정·공공기관,false,STC-1810,1,P3,25,LOW_PRIORITY,도로 polygon 20m 이내,RESIDENTIAL_MANUAL_REVIEW,EXCLUDE_PRIVATE_RESIDENTIAL,HIGH,name_has_private_internal_keyword:아파트,"https://map.kakao.com/link/map/35.1949004,128.9954933","https://map.kakao.com/link/roadview/35.1949004,128.9954933"
stairs:2013,북구,삼정그린코아아파트,35.1937192,128.9944238,0.00,1.04,100035816030C03910100000000009424,8.7,busan-road-polygon:168928,,12.3,RDQ006,152.7,crosswalk:2242,,false,87.7,barrier_free_facility:6434,부산북부교육청,행정·공공기관,false,STC-1813,1,P3,25,LOW_PRIORITY,도로 polygon 20m 이내,RESIDENTIAL_MANUAL_REVIEW,EXCLUDE_PRIVATE_RESIDENTIAL,HIGH,name_has_private_internal_keyword:아파트,"https://map.kakao.com/link/map/35.1937192,128.9944238","https://map.kakao.com/link/roadview/35.1937192,128.9944238"
stairs:2068,북구,e편한세상금정산아파트,35.2166285,129.0356362,2.10,15.58,100035913012C03910100000000021540,10.0,busan-road-polygon:162178,,23.0,RDQ006,38.9,crosswalk:1676,금정산LH뉴웰시티아파트 112동앞 사거리,false,221.8,barrier_free_facility:6228,만덕재가노인지원센타,복지·돌봄,false,STC-1858,1,P3,25,LOW_PRIORITY,도로 polygon 20m 이내,RESIDENTIAL_MANUAL_REVIEW,EXCLUDE_PRIVATE_RESIDENTIAL,HIGH,name_has_private_internal_keyword:아파트,"https://map.kakao.com/link/map/35.2166285,129.0356362","https://map.kakao.com/link/roadview/35.2166285,129.0356362"
stairs:1868,북구,화명롯데캐슬카이저아파트,35.2249368,129.0116740,0.00,16.62,100035913011C03910100000000008719,13.6,busan-road-polygon:163559,,7.5,RDQ006,143.7,crosswalk:580,화명소방PB,false,131.2,public_toilet:999,화명119안전센터 화장실,화장실,false,STC-1685,1,P3,25,LOW_PRIORITY,도로 polygon 20m 이내,RESIDENTIAL_MANUAL_REVIEW,EXCLUDE_PRIVATE_RESIDENTIAL,HIGH,name_has_private_internal_keyword:아파트,"https://map.kakao.com/link/map/35.2249368,129.0116740","https://map.kakao.com/link/roadview/35.2249368,129.0116740"
stairs:2012,북구,삼정그린코아아파트,35.1946977,128.9952499,0.00,23.24,100035816030C03910100000000009423,13.8,busan-road-polygon:161188,,12.0,RDQ006,131.7,crosswalk:2242,,false,58.6,barrier_free_facility:6434,부산북부교육청,행정·공공기관,false,STC-1812,1,P3,25,LOW_PRIORITY,도로 polygon 20m 이내,RESIDENTIAL_MANUAL_REVIEW,EXCLUDE_PRIVATE_RESIDENTIAL,HIGH,name_has_private_internal_keyword:아파트,"https://map.kakao.com/link/map/35.1946977,128.9952499","https://map.kakao.com/link/roadview/35.1946977,128.9952499"
stairs:1869,북구,화명롯데캐슬카이저아파트,35.2248777,129.0118356,0.00,35.65,100035913011C03910100000000008720,16.0,busan-road-polygon:163559,,7.5,RDQ006,159.8,crosswalk:580,화명소방PB,false,147.2,public_toilet:999,화명119안전센터 화장실,화장실,false,STC-1686,6,P3,25,LOW_PRIORITY,"도로 polygon 20m 이내, 15m 이내 계단 클러스터",RESIDENTIAL_MANUAL_REVIEW,EXCLUDE_PRIVATE_RESIDENTIAL,HIGH,name_has_private_internal_keyword:아파트,"https://map.kakao.com/link/map/35.2248777,129.0118356","https://map.kakao.com/link/roadview/35.2248777,129.0118356"
stairs:1859,북구,화명롯데캐슬카이저아파트,35.2250437,129.0111130,0.00,36.83,100035913001C03910100000000008706,16.9,busan-road-polygon:163559,,7.5,RDQ006,92.6,crosswalk:580,화명소방PB,false,79.1,public_toilet:999,화명119안전센터 화장실,화장실,false,STC-1677,1,P3,25,LOW_PRIORITY,도로 polygon 20m 이내,RESIDENTIAL_MANUAL_REVIEW,EXCLUDE_PRIVATE_RESIDENTIAL,HIGH,name_has_private_internal_keyword:아파트,"https://map.kakao.com/link/map/35.2250437,129.0111130","https://map.kakao.com/link/roadview/35.2250437,129.0111130"
stairs:1947,북구,화명롯데캐슬카이저아파트,35.2192394,129.0090657,0.00,46.37,100035913011C03910100000000008836,17.0,busan-road-polygon:163580,,24.0,RDQ006,165.1,crosswalk:750,화명주공아파트정문,false,59.4,public_toilet:1013,광신석유직영 덕천주유소,화장실,false,STC-1755,1,P3,25,LOW_PRIORITY,도로 polygon 20m 이내,RESIDENTIAL_MANUAL_REVIEW,EXCLUDE_PRIVATE_RESIDENTIAL,HIGH,name_has_private_internal_keyword:아파트,"https://map.kakao.com/link/map/35.2192394,129.0090657","https://map.kakao.com/link/roadview/35.2192394,129.0090657"
stairs:1913,북구,동문굿모닝힐아파트,35.2055548,129.0336305,0.00,37.35,100035913012C03910100000000008791,20.0,busan-road-polygon:164453,,30.0,RDQ006,93.1,crosswalk:627,만덕택지(3)-1(공용의청사앞),false,89.6,public_toilet:878,만덕119안전센터 화장실,화장실,false,STC-1724,1,P3,25,LOW_PRIORITY,도로 polygon 20m 이내,RESIDENTIAL_MANUAL_REVIEW,EXCLUDE_PRIVATE_RESIDENTIAL,HIGH,name_has_private_internal_keyword:아파트,"https://map.kakao.com/link/map/35.2055548,129.0336305","https://map.kakao.com/link/roadview/35.2055548,129.0336305"
stairs:1885,북구,화명롯데캐슬카이저아파트,35.2228677,129.0103422,0.00,173.28,100035913011C03910100000000008736,100.2,busan-road-polygon:168573,부산-강릉선,32.3,RDQ006,160.1,crosswalk:691,수정역,false,36.2,public_toilet:965,화정근린공원 화장실,화장실,true,STC-1699,1,P4,20,LOW_PRIORITY,"도로 polygon 20m 초과, 편의시설 50m 이내, 폭/면적 기준 큼",RESIDENTIAL_MANUAL_REVIEW,EXCLUDE_PRIVATE_RESIDENTIAL,HIGH,name_has_private_internal_keyword:아파트,"https://map.kakao.com/link/map/35.2228677,129.0103422","https://map.kakao.com/link/roadview/35.2228677,129.0103422"
stairs:2027,북구,삼정그린코아아파트,35.1944807,128.9950958,0.00,13.67,100035816030C03910100000000009456,31.6,busan-road-polygon:161188,,12.0,RDQ006,127.4,crosswalk:2242,,false,36.1,barrier_free_facility:6434,부산북부교육청,행정·공공기관,true,STC-1824,2,P4,15,LOW_PRIORITY,"도로 polygon 20m 초과, 편의시설 50m 이내, 15m 이내 계단 클러스터",RESIDENTIAL_MANUAL_REVIEW,EXCLUDE_PRIVATE_RESIDENTIAL,HIGH,name_has_private_internal_keyword:아파트,"https://map.kakao.com/link/map/35.1944807,128.9950958","https://map.kakao.com/link/roadview/35.1944807,128.9950958"
stairs:1881,북구,화명롯데캐슬카이저아파트,35.2227362,129.0106988,0.00,31.83,100035913011C03910100000000008732,206.6,busan-road-polygon:163563,,12.2,RDQ006,194.9,crosswalk:691,수정역,false,20.7,public_toilet:965,화정근린공원 화장실,화장실,true,STC-1696,1,P4,15,LOW_PRIORITY,"도로 polygon 20m 초과, 편의시설 50m 이내",RESIDENTIAL_MANUAL_REVIEW,EXCLUDE_PRIVATE_RESIDENTIAL,HIGH,name_has_private_internal_keyword:아파트,"https://map.kakao.com/link/map/35.2227362,129.0106988","https://map.kakao.com/link/roadview/35.2227362,129.0106988"
stairs:1861,북구,e편한세상화명힐스아파트,35.2338913,129.0148863,0.00,145.46,100035913001C03910100000000008711,44.5,busan-road-polygon:162935,,17.0,RDQ006,115.6,crosswalk:745,백양주유소,false,86.6,barrier_free_facility:6090,미즈웰 산부인과,의료·보건,false,STC-1679,1,P4,5,LOW_PRIORITY,"도로 polygon 20m 초과, 폭/면적 기준 큼",RESIDENTIAL_MANUAL_REVIEW,EXCLUDE_PRIVATE_RESIDENTIAL,HIGH,name_has_private_internal_keyword:아파트,"https://map.kakao.com/link/map/35.2338913,129.0148863","https://map.kakao.com/link/roadview/35.2338913,129.0148863"
stairs:1921,북구,덕천주공2단지아파트,35.2094501,129.0169944,0.00,60.57,100035913011C03910100000000008808,50.3,busan-road-polygon:164569,,20.4,RDQ006,88.8,crosswalk:613,덕천3동사무소,false,50.4,charging_station:87,덕천종합사회복지관,전동보장구 충전소,false,STC-1730,1,P4,5,LOW_PRIORITY,"도로 polygon 20m 초과, 폭/면적 기준 큼",RESIDENTIAL_MANUAL_REVIEW,EXCLUDE_PRIVATE_RESIDENTIAL,HIGH,name_has_private_internal_keyword:아파트|주공,"https://map.kakao.com/link/map/35.2094501,129.0169944","https://map.kakao.com/link/roadview/35.2094501,129.0169944"
stairs:2069,북구,삼성아파트,35.2111909,129.0357324,4.50,19.33,100035913012C03910100000000021541,55.7,busan-road-polygon:162246,,10.0,RDQ006,100.3,crosswalk:629,만덕신협앞(대성타워 앞),false,142.0,barrier_free_facility:6199,풍성한주간보호센터,복지·돌봄,false,STC-1859,1,P4,5,LOW_PRIORITY,"도로 polygon 20m 초과, 폭/면적 기준 큼",RESIDENTIAL_MANUAL_REVIEW,EXCLUDE_PRIVATE_RESIDENTIAL,HIGH,name_has_private_internal_keyword:아파트,"https://map.kakao.com/link/map/35.2111909,129.0357324","https://map.kakao.com/link/roadview/35.2111909,129.0357324"
stairs:1880,북구,화명롯데캐슬카이저아파트,35.2229927,129.0121964,0.00,56.59,100035913011C03910100000000008731,89.6,busan-road-polygon:163563,,12.2,RDQ006,234.5,crosswalk:526,화명롯데캐슬카이저 후문,false,155.9,public_toilet:965,화정근린공원 화장실,화장실,false,STC-1695,1,P4,5,LOW_PRIORITY,"도로 polygon 20m 초과, 폭/면적 기준 큼",RESIDENTIAL_MANUAL_REVIEW,EXCLUDE_PRIVATE_RESIDENTIAL,HIGH,name_has_private_internal_keyword:아파트,"https://map.kakao.com/link/map/35.2229927,129.0121964","https://map.kakao.com/link/roadview/35.2229927,129.0121964"
stairs:2058,북구,만덕3단지주공아파트,35.2032115,129.0357117,4.00,14.76,100035913012C03910100000000021530,117.5,busan-road-polygon:164482,,16.0,RDQ006,228.2,crosswalk:649,만덕택지(3)-2(신덕초교 앞),false,159.8,public_toilet:907,만덕종합사회복지관,화장실,false,STC-1854,2,P4,5,LOW_PRIORITY,"도로 polygon 20m 초과, 폭/면적 기준 큼, 15m 이내 계단 클러스터",RESIDENTIAL_MANUAL_REVIEW,EXCLUDE_PRIVATE_RESIDENTIAL,HIGH,name_has_private_internal_keyword:아파트|주공,"https://map.kakao.com/link/map/35.2032115,129.0357117","https://map.kakao.com/link/roadview/35.2032115,129.0357117"
stairs:2066,북구,만덕3단지주공아파트,35.2032821,129.0356983,3.50,13.46,100035913012C03910100000000021538,119.9,busan-road-polygon:167589,,1.5,RDQ005,228.1,crosswalk:649,만덕택지(3)-2(신덕초교 앞),false,167.6,public_toilet:907,만덕종합사회복지관,화장실,false,STC-1854,2,P4,5,LOW_PRIORITY,"도로 polygon 20m 초과, 폭/면적 기준 큼, 15m 이내 계단 클러스터",RESIDENTIAL_MANUAL_REVIEW,EXCLUDE_PRIVATE_RESIDENTIAL,HIGH,name_has_private_internal_keyword:아파트|주공,"https://map.kakao.com/link/map/35.2032821,129.0356983","https://map.kakao.com/link/roadview/35.2032821,129.0356983"
stairs:1875,북구,화명롯데캐슬카이저아파트,35.2243233,129.0113902,0.00,69.05,100035913011C03910100000000008726,211.1,busan-road-polygon:163563,,12.2,RDQ006,164.1,crosswalk:580,화명소방PB,false,147.0,public_toilet:999,화명119안전센터 화장실,화장실,false,STC-1690,1,P4,5,LOW_PRIORITY,"도로 polygon 20m 초과, 폭/면적 기준 큼",RESIDENTIAL_MANUAL_REVIEW,EXCLUDE_PRIVATE_RESIDENTIAL,HIGH,name_has_private_internal_keyword:아파트,"https://map.kakao.com/link/map/35.2243233,129.0113902","https://map.kakao.com/link/roadview/35.2243233,129.0113902"
stairs:2007,북구,삼정그린코아아파트,35.1947838,128.9949423,0.00,7.49,100035816030C03910100000000009417,20.6,busan-road-polygon:168942,,7.6,RDQ006,102.1,crosswalk:2242,,false,72.4,barrier_free_facility:6434,부산북부교육청,행정·공공기관,false,STC-1807,2,P4,0,LOW_PRIORITY,"도로 polygon 20m 초과, 15m 이내 계단 클러스터",RESIDENTIAL_MANUAL_REVIEW,EXCLUDE_PRIVATE_RESIDENTIAL,HIGH,name_has_private_internal_keyword:아파트,"https://map.kakao.com/link/map/35.1947838,128.9949423","https://map.kakao.com/link/roadview/35.1947838,128.9949423"
stairs:2014,북구,삼정그린코아아파트,35.1946163,128.9949846,0.00,15.11,100035816030C03910100000000009425,29.8,busan-road-polygon:168942,,7.6,RDQ006,111.8,crosswalk:2242,,false,53.7,barrier_free_facility:6434,부산북부교육청,행정·공공기관,false,STC-1814,1,P4,0,LOW_PRIORITY,도로 polygon 20m 초과,RESIDENTIAL_MANUAL_REVIEW,EXCLUDE_PRIVATE_RESIDENTIAL,HIGH,name_has_private_internal_keyword:아파트,"https://map.kakao.com/link/map/35.1946163,128.9949846","https://map.kakao.com/link/roadview/35.1946163,128.9949846"
stairs:1912,북구,만덕현대아파트,35.2120528,129.0290836,0.00,20.54,100035913012C03910100000000008786,31.4,busan-road-polygon:162549,,19.5,RDQ006,43.6,crosswalk:570,만덕현대아파트앞,false,75.0,public_toilet:1017,만덕제3동 행정복지센터,화장실,false,STC-1723,1,P4,0,LOW_PRIORITY,도로 polygon 20m 초과,RESIDENTIAL_MANUAL_REVIEW,EXCLUDE_PRIVATE_RESIDENTIAL,HIGH,name_has_private_internal_keyword:아파트,"https://map.kakao.com/link/map/35.2120528,129.0290836","https://map.kakao.com/link/roadview/35.2120528,129.0290836"
stairs:1914,북구,금정산LH뉴웰시티아파트,35.2155933,129.0353397,0.00,5.62,100035913012C03910100000000008792,45.0,busan-road-polygon:162238,,10.5,RDQ006,108.9,crosswalk:696,금정산LH뉴웰시티아파트 정문앞,false,157.9,barrier_free_facility:6232,북부산 새마을금고 만덕지점,의료·보건,false,STC-1725,3,P4,0,LOW_PRIORITY,"도로 polygon 20m 초과, 15m 이내 계단 클러스터",RESIDENTIAL_MANUAL_REVIEW,EXCLUDE_PRIVATE_RESIDENTIAL,HIGH,name_has_private_internal_keyword:아파트,"https://map.kakao.com/link/map/35.2155933,129.0353397","https://map.kakao.com/link/roadview/35.2155933,129.0353397"
stairs:1906,북구,만덕럭키2차아파트,35.2101192,129.0257958,0.00,14.14,100035913012C03910100000000008780,45.5,busan-road-polygon:162793,,12.0,RDQ006,175.5,crosswalk:575,만덕벽산아파트,false,167.5,public_toilet:1004,개나리공원 화장실,화장실,false,STC-1717,1,P4,0,LOW_PRIORITY,도로 polygon 20m 초과,RESIDENTIAL_MANUAL_REVIEW,EXCLUDE_PRIVATE_RESIDENTIAL,HIGH,name_has_private_internal_keyword:아파트,"https://map.kakao.com/link/map/35.2101192,129.0257958","https://map.kakao.com/link/roadview/35.2101192,129.0257958"
stairs:1839,북구,도시화명그린2차아파트,35.2447925,129.0219311,0.00,15.63,100035913001C03910100000000008677,46.9,busan-road-polygon:166647,,15.0,RDQ006,521.0,crosswalk:621,대천주택앞,false,227.3,public_toilet:988,화명2동 행정복지센터 화장실,화장실,false,STC-1661,1,P4,0,LOW_PRIORITY,도로 polygon 20m 초과,RESIDENTIAL_MANUAL_REVIEW,EXCLUDE_PRIVATE_RESIDENTIAL,HIGH,name_has_private_internal_keyword:아파트,"https://map.kakao.com/link/map/35.2447925,129.0219311","https://map.kakao.com/link/roadview/35.2447925,129.0219311"
stairs:1882,북구,화명롯데캐슬카이저아파트,35.2246036,129.0117397,0.00,30.74,100035913011C03910100000000008733,47.4,busan-road-polygon:163559,,7.5,RDQ006,166.9,crosswalk:580,화명소방PB,false,152.0,public_toilet:999,화명119안전센터 화장실,화장실,false,STC-1686,6,P4,0,LOW_PRIORITY,"도로 polygon 20m 초과, 15m 이내 계단 클러스터",RESIDENTIAL_MANUAL_REVIEW,EXCLUDE_PRIVATE_RESIDENTIAL,HIGH,name_has_private_internal_keyword:아파트,"https://map.kakao.com/link/map/35.2246036,129.0117397","https://map.kakao.com/link/roadview/35.2246036,129.0117397"
stairs:1879,북구,화명롯데캐슬카이저아파트,35.2205642,129.0115998,0.00,25.46,100035913011C03910100000000008730,49.0,busan-road-polygon:163563,,12.2,RDQ006,306.9,crosswalk:750,화명주공아파트정문,false,244.2,public_toilet:965,화정근린공원 화장실,화장실,false,STC-1694,1,P4,0,LOW_PRIORITY,도로 polygon 20m 초과,RESIDENTIAL_MANUAL_REVIEW,EXCLUDE_PRIVATE_RESIDENTIAL,HIGH,name_has_private_internal_keyword:아파트,"https://map.kakao.com/link/map/35.2205642,129.0115998","https://map.kakao.com/link/roadview/35.2205642,129.0115998"
stairs:1878,북구,화명롯데캐슬카이저아파트,35.2243030,129.0131745,0.00,15.92,100035913011C03910100000000008729,58.8,busan-road-polygon:163563,,12.2,RDQ006,79.7,crosswalk:526,화명롯데캐슬카이저 후문,false,151.2,public_toilet:885,화명근린공원 화장실,화장실,false,STC-1693,1,P4,0,LOW_PRIORITY,도로 polygon 20m 초과,RESIDENTIAL_MANUAL_REVIEW,EXCLUDE_PRIVATE_RESIDENTIAL,HIGH,name_has_private_internal_keyword:아파트,"https://map.kakao.com/link/map/35.2243030,129.0131745","https://map.kakao.com/link/roadview/35.2243030,129.0131745"
stairs:1916,북구,금정산LH뉴웰시티아파트,35.2156706,129.0355047,0.00,7.21,100035913012C03910100000000008794,58.8,busan-road-polygon:162178,,23.0,RDQ006,92.0,crosswalk:696,금정산LH뉴웰시티아파트 정문앞,false,161.6,barrier_free_facility:6232,북부산 새마을금고 만덕지점,의료·보건,false,STC-1725,3,P4,0,LOW_PRIORITY,"도로 polygon 20m 초과, 15m 이내 계단 클러스터",RESIDENTIAL_MANUAL_REVIEW,EXCLUDE_PRIVATE_RESIDENTIAL,HIGH,name_has_private_internal_keyword:아파트,"https://map.kakao.com/link/map/35.2156706,129.0355047","https://map.kakao.com/link/roadview/35.2156706,129.0355047"
stairs:1915,북구,금정산LH뉴웰시티아파트,35.2156258,129.0354118,0.00,8.10,100035913012C03910100000000008793,67.8,busan-road-polygon:162178,,23.0,RDQ006,101.6,crosswalk:696,금정산LH뉴웰시티아파트 정문앞,false,159.2,barrier_free_facility:6232,북부산 새마을금고 만덕지점,의료·보건,false,STC-1725,3,P4,0,LOW_PRIORITY,"도로 polygon 20m 초과, 15m 이내 계단 클러스터",RESIDENTIAL_MANUAL_REVIEW,EXCLUDE_PRIVATE_RESIDENTIAL,HIGH,name_has_private_internal_keyword:아파트,"https://map.kakao.com/link/map/35.2156258,129.0354118","https://map.kakao.com/link/roadview/35.2156258,129.0354118"
stairs:1877,북구,화명롯데캐슬카이저아파트,35.2219504,129.0118444,0.00,30.26,100035913011C03910100000000008728,78.0,busan-road-polygon:163563,,12.2,RDQ006,330.5,crosswalk:691,수정역,false,137.3,public_toilet:965,화정근린공원 화장실,화장실,false,STC-1692,1,P4,0,LOW_PRIORITY,도로 polygon 20m 초과,RESIDENTIAL_MANUAL_REVIEW,EXCLUDE_PRIVATE_RESIDENTIAL,HIGH,name_has_private_internal_keyword:아파트,"https://map.kakao.com/link/map/35.2219504,129.0118444","https://map.kakao.com/link/roadview/35.2219504,129.0118444"
stairs:1884,북구,화명롯데캐슬카이저아파트,35.2207385,129.0112092,0.00,34.70,100035913011C03910100000000008735,88.6,busan-road-polygon:163563,,12.2,RDQ006,272.1,crosswalk:750,화명주공아파트정문,false,214.1,public_toilet:965,화정근린공원 화장실,화장실,false,STC-1698,1,P4,0,LOW_PRIORITY,도로 polygon 20m 초과,RESIDENTIAL_MANUAL_REVIEW,EXCLUDE_PRIVATE_RESIDENTIAL,HIGH,name_has_private_internal_keyword:아파트,"https://map.kakao.com/link/map/35.2207385,129.0112092","https://map.kakao.com/link/roadview/35.2207385,129.0112092"
stairs:1823,북구,금곡3단지주공아파트,35.2645316,129.0212977,0.00,12.13,100035909091C03910100000000008625,94.9,busan-road-polygon:161669,,7.3,RDQ006,85.4,crosswalk:579,금곡금창초교옆,false,72.6,public_toilet:913,건강공원 화장실,화장실,false,STC-1649,1,P4,0,LOW_PRIORITY,도로 polygon 20m 초과,RESIDENTIAL_MANUAL_REVIEW,EXCLUDE_PRIVATE_RESIDENTIAL,HIGH,name_has_private_internal_keyword:아파트|주공,"https://map.kakao.com/link/map/35.2645316,129.0212977","https://map.kakao.com/link/roadview/35.2645316,129.0212977"
stairs:1845,북구,그린숲속아파트,35.2400095,129.0221087,0.00,14.49,100035913001C03910100000000008692,124.8,busan-road-polygon:162207,,33.5,RDQ006,334.4,crosswalk:621,대천주택앞,false,281.3,public_toilet:896,화명정수장 옆,화장실,false,STC-1665,1,P4,0,LOW_PRIORITY,도로 polygon 20m 초과,RESIDENTIAL_MANUAL_REVIEW,EXCLUDE_PRIVATE_RESIDENTIAL,HIGH,name_has_private_internal_keyword:아파트,"https://map.kakao.com/link/map/35.2400095,129.0221087","https://map.kakao.com/link/roadview/35.2400095,129.0221087"
stairs:1883,북구,화명롯데캐슬카이저아파트,35.2235783,129.0115831,0.00,36.17,100035913011C03910100000000008734,165.1,busan-road-polygon:163563,,12.2,RDQ006,240.7,crosswalk:691,수정역,false,144.0,public_toilet:965,화정근린공원 화장실,화장실,false,STC-1697,1,P4,0,LOW_PRIORITY,도로 polygon 20m 초과,RESIDENTIAL_MANUAL_REVIEW,EXCLUDE_PRIVATE_RESIDENTIAL,HIGH,name_has_private_internal_keyword:아파트,"https://map.kakao.com/link/map/35.2235783,129.0115831","https://map.kakao.com/link/roadview/35.2235783,129.0115831"
stairs:1962,북구,덕천주공1단지아파트,35.2052418,129.0115545,0.00,13.87,100035913011C03910100000000008852,413.4,busan-road-polygon:164541,,1.5,RDQ005,366.3,crosswalk:617,한성아파트,false,361.3,barrier_free_facility:6441,당산경로당,복지·돌봄,false,STC-1769,2,P4,0,LOW_PRIORITY,"도로 polygon 20m 초과, 15m 이내 계단 클러스터",RESIDENTIAL_MANUAL_REVIEW,EXCLUDE_PRIVATE_RESIDENTIAL,HIGH,name_has_private_internal_keyword:아파트|주공,"https://map.kakao.com/link/map/35.2052418,129.0115545","https://map.kakao.com/link/roadview/35.2052418,129.0115545"
stairs:1858,북구,화명롯데캐슬카이저아파트,35.2250518,129.0131066,0.00,48.74,100035913001C03910100000000008705,488.3,busan-road-polygon:163497,,1.5,RDQ005,104.3,crosswalk:526,화명롯데캐슬카이저 후문,false,175.2,public_toilet:885,화명근린공원 화장실,화장실,false,STC-1676,1,P4,0,LOW_PRIORITY,도로 polygon 20m 초과,RESIDENTIAL_MANUAL_REVIEW,EXCLUDE_PRIVATE_RESIDENTIAL,HIGH,name_has_private_internal_keyword:아파트,"https://map.kakao.com/link/map/35.2250518,129.0131066","https://map.kakao.com/link/roadview/35.2250518,129.0131066"
stairs:2432,사상구,대성아파트,35.1528612,129.0035322,0.00,25.61,100035913031C03910100000000010132,0.0,busan-road-polygon:182233,,37.5,RDQ006,25.0,crosswalk:2330,주감초교,true,297.4,barrier_free_facility:11932,Coffee gelle,음식·카페,false,STC-2185,1,P1,80,CANDIDATE,"도로 polygon과 겹침, 횡단보도 30m 이내",RESIDENTIAL_MANUAL_REVIEW,EXCLUDE_PRIVATE_RESIDENTIAL,HIGH,name_has_private_internal_keyword:아파트,"https://map.kakao.com/link/map/35.1528612,129.0035322","https://map.kakao.com/link/roadview/35.1528612,129.0035322"
stairs:2212,사상구,우신모라아파트,35.1829807,128.9908557,0.00,5.65,100035816030C03910100000000009788,0.0,busan-road-polygon:169801,,8.9,RDQ006,197.5,crosswalk:2323,자유아파트,false,46.0,charging_station:105,사상구청소년수련관,전동보장구 충전소,true,STC-1979,4,P1,75,CANDIDATE,"도로 polygon과 겹침, 편의시설 50m 이내, 15m 이내 계단 클러스터",RESIDENTIAL_MANUAL_REVIEW,EXCLUDE_PRIVATE_RESIDENTIAL,HIGH,name_has_private_internal_keyword:아파트,"https://map.kakao.com/link/map/35.1829807,128.9908557","https://map.kakao.com/link/roadview/35.1829807,128.9908557"
stairs:2587,사상구,삼광아파트,35.1392095,128.9784958,0.00,3.56,100035816050C03910100000000040468,4.4,busan-road-polygon:179591,,1.0,RDQ006,79.0,crosswalk:2155,학장목화아파트,false,25.7,barrier_free_facility:12112,새밭마을 에코하우스,복지·돌봄,true,STC-2321,1,P1,65,CANDIDATE,"도로 polygon 5m 이내, 편의시설 50m 이내",RESIDENTIAL_MANUAL_REVIEW,EXCLUDE_PRIVATE_RESIDENTIAL,HIGH,name_has_private_internal_keyword:아파트,"https://map.kakao.com/link/map/35.1392095,128.9784958","https://map.kakao.com/link/roadview/35.1392095,128.9784958"
stairs:2078,사상구,모라주공4단지아파트,35.1845344,129.0020610,0.00,4.23,100035913021C03910100000000008863,0.0,busan-road-polygon:181588,,15.4,RDQ006,40.0,crosswalk:2239,모동초교,false,94.0,barrier_free_facility:11533,모라3동 우체국,행정·공공기관,false,STC-1866,1,P1,60,CANDIDATE,도로 polygon과 겹침,RESIDENTIAL_MANUAL_REVIEW,EXCLUDE_PRIVATE_RESIDENTIAL,HIGH,name_has_private_internal_keyword:아파트|주공,"https://map.kakao.com/link/map/35.1845344,129.0020610","https://map.kakao.com/link/roadview/35.1845344,129.0020610"
stairs:2692,사상구,엄궁롯데캐슬리버아파트,35.1261900,128.9743418,0.00,16.51,100035816049C03910100000000040609,0.0,busan-road-polygon:178014,,10.2,RDQ006,196.7,crosswalk:2248,엄궁제일유치원 주변,false,243.6,barrier_free_facility:12149,백산빌딩,음식·카페,false,STC-2419,1,P1,60,CANDIDATE,도로 polygon과 겹침,RESIDENTIAL_MANUAL_REVIEW,EXCLUDE_PRIVATE_RESIDENTIAL,HIGH,name_has_private_internal_keyword:아파트,"https://map.kakao.com/link/map/35.1261900,128.9743418","https://map.kakao.com/link/roadview/35.1261900,128.9743418"
stairs:2228,사상구,부원파크타운아파트,35.1787787,128.9899393,0.00,7.75,100035816030C03910100000000009805,0.3,busan-road-polygon:170254,,13.4,RDQ006,128.3,crosswalk:2326,북부노동청,false,73.0,tourist_spot:41,부산점자도서관,관광지,false,STC-2000,1,P1,50,CANDIDATE,도로 polygon 5m 이내,RESIDENTIAL_MANUAL_REVIEW,EXCLUDE_PRIVATE_RESIDENTIAL,HIGH,name_has_private_internal_keyword:아파트,"https://map.kakao.com/link/map/35.1787787,128.9899393","https://map.kakao.com/link/roadview/35.1787787,128.9899393"
stairs:2109,사상구,삼정그린코아아파트,35.1945816,128.9946104,0.00,4.35,100035816030C03910100000000009420,0.5,busan-road-polygon:168942,,7.6,RDQ006,83.8,crosswalk:2242,,false,71.4,barrier_free_facility:6434,부산북부교육청,행정·공공기관,false,STC-1896,1,P1,50,CANDIDATE,도로 polygon 5m 이내,RESIDENTIAL_MANUAL_REVIEW,EXCLUDE_PRIVATE_RESIDENTIAL,HIGH,name_has_private_internal_keyword:아파트,"https://map.kakao.com/link/map/35.1945816,128.9946104","https://map.kakao.com/link/roadview/35.1945816,128.9946104"
stairs:2694,사상구,엄궁롯데캐슬리버아파트,35.1266473,128.9776710,0.00,13.33,100035816050C03910100000000040611,0.8,busan-road-polygon:178297,,14.6,RDQ006,160.5,crosswalk:2249,엄궁제일유치원 주변,false,461.6,barrier_free_facility:12149,백산빌딩,음식·카페,false,STC-2421,1,P1,50,CANDIDATE,도로 polygon 5m 이내,RESIDENTIAL_MANUAL_REVIEW,EXCLUDE_PRIVATE_RESIDENTIAL,HIGH,name_has_private_internal_keyword:아파트,"https://map.kakao.com/link/map/35.1266473,128.9776710","https://map.kakao.com/link/roadview/35.1266473,128.9776710"
stairs:2451,사상구,구례롯데캐슬골드스마트아파트,35.1512965,128.9983372,0.00,15.58,100035816040C03910100000000010151,3.1,busan-road-polygon:175592,,25.8,RDQ006,35.2,crosswalk:2316,주례1동사무소,false,89.1,public_toilet:1785,주례동우체국,화장실,false,STC-2204,1,P1,50,CANDIDATE,도로 polygon 5m 이내,RESIDENTIAL_MANUAL_REVIEW,EXCLUDE_PRIVATE_RESIDENTIAL,HIGH,name_has_private_internal_keyword:아파트,"https://map.kakao.com/link/map/35.1512965,128.9983372","https://map.kakao.com/link/roadview/35.1512965,128.9983372"
stairs:2320,사상구,주례경동리인아파트,35.1561612,128.9961626,0.00,14.05,100035816040C03910100000000009905,3.6,busan-road-polygon:175799,,7.7,RDQ006,108.1,crosswalk:2282,주감여중,false,313.1,barrier_free_facility:11945,주례1동온골경로당,복지·돌봄,false,STC-2080,1,P1,50,CANDIDATE,도로 polygon 5m 이내,RESIDENTIAL_MANUAL_REVIEW,EXCLUDE_PRIVATE_RESIDENTIAL,HIGH,name_has_private_internal_keyword:아파트,"https://map.kakao.com/link/map/35.1561612,128.9961626","https://map.kakao.com/link/roadview/35.1561612,128.9961626"
stairs:2221,사상구,자유아파트,35.1813897,128.9903074,0.00,43.92,100035816030C03910100000000009798,4.2,busan-road-polygon:170195,,11.8,RDQ006,169.7,crosswalk:2324,자유아파트,false,198.0,barrier_free_facility:11554,감로수 요양병원,의료·보건,false,STC-1993,1,P1,50,CANDIDATE,도로 polygon 5m 이내,RESIDENTIAL_MANUAL_REVIEW,EXCLUDE_PRIVATE_RESIDENTIAL,HIGH,name_has_private_internal_keyword:아파트,"https://map.kakao.com/link/map/35.1813897,128.9903074","https://map.kakao.com/link/roadview/35.1813897,128.9903074"
stairs:2422,사상구,주례현대아파트,35.1542238,129.0023383,0.00,11.23,100035913031C03910100000000010103,4.8,busan-road-polygon:182264,,10.5,RDQ006,115.0,crosswalk:2189,주감초등학교,false,377.8,public_toilet:1794,주례1치안센터,화장실,false,STC-2175,1,P1,50,CANDIDATE,도로 polygon 5m 이내,RESIDENTIAL_MANUAL_REVIEW,EXCLUDE_PRIVATE_RESIDENTIAL,HIGH,name_has_private_internal_keyword:아파트,"https://map.kakao.com/link/map/35.1542238,129.0023383","https://map.kakao.com/link/roadview/35.1542238,129.0023383"
stairs:2123,사상구,삼정그린코아아파트,35.1944074,128.9945645,0.00,10.20,100035816030C03910100000000009455,4.9,busan-road-polygon:168942,,7.6,RDQ006,93.3,crosswalk:2242,,false,64.7,barrier_free_facility:6434,부산북부교육청,행정·공공기관,false,STC-1910,1,P1,50,CANDIDATE,도로 polygon 5m 이내,RESIDENTIAL_MANUAL_REVIEW,EXCLUDE_PRIVATE_RESIDENTIAL,HIGH,name_has_private_internal_keyword:아파트,"https://map.kakao.com/link/map/35.1944074,128.9945645","https://map.kakao.com/link/roadview/35.1944074,128.9945645"
stairs:2452,사상구,구례롯데캐슬골드스마트아파트,35.1514732,128.9980837,0.00,11.03,100035816040C03910100000000010152,9.8,busan-road-polygon:175592,,25.8,RDQ006,26.1,crosswalk:2316,주례1동사무소,true,70.0,public_toilet:1785,주례동우체국,화장실,false,STC-2205,1,P2,45,CANDIDATE,"도로 polygon 20m 이내, 횡단보도 30m 이내",RESIDENTIAL_MANUAL_REVIEW,EXCLUDE_PRIVATE_RESIDENTIAL,HIGH,name_has_private_internal_keyword:아파트,"https://map.kakao.com/link/map/35.1514732,128.9980837","https://map.kakao.com/link/roadview/35.1514732,128.9980837"
stairs:2512,사상구,학장벽산아파트,35.1402451,128.9894659,0.00,1.46,100035816050C03910100000000040391,6.3,busan-road-polygon:180701,,39.9,RDQ006,112.1,crosswalk:2318,학장벽산아파트,false,16.5,public_toilet:1792,학장동우체국,화장실,true,STC-2261,1,P2,40,CANDIDATE,"도로 polygon 20m 이내, 편의시설 50m 이내",RESIDENTIAL_MANUAL_REVIEW,EXCLUDE_PRIVATE_RESIDENTIAL,HIGH,name_has_private_internal_keyword:아파트,"https://map.kakao.com/link/map/35.1402451,128.9894659","https://map.kakao.com/link/roadview/35.1402451,128.9894659"
stairs:2129,사상구,모라1단지주공아파트,35.1848846,128.9968160,0.00,12.90,100035816030C03910100000000009466,19.9,busan-road-polygon:169555,,21.2,RDQ006,88.4,crosswalk:2238,모산초교,false,49.1,barrier_free_facility:11553,모라파출소,행정·공공기관,true,STC-1916,1,P2,40,CANDIDATE,"도로 polygon 20m 이내, 편의시설 50m 이내",RESIDENTIAL_MANUAL_REVIEW,EXCLUDE_PRIVATE_RESIDENTIAL,HIGH,name_has_private_internal_keyword:아파트|주공,"https://map.kakao.com/link/map/35.1848846,128.9968160","https://map.kakao.com/link/roadview/35.1848846,128.9968160"
stairs:2679,사상구,엄궁한신1차아파트,35.1254282,128.9684726,0.00,57.22,100035816049C03910100000000040596,7.1,busan-road-polygon:177808,,2.1,RDQ006,110.3,crosswalk:2359,농수산물도매시장,false,124.6,barrier_free_facility:12161,한솔숲빌딩,음식·카페,false,STC-2406,1,P3,30,LOW_PRIORITY,"도로 polygon 20m 이내, 폭/면적 기준 큼",RESIDENTIAL_MANUAL_REVIEW,EXCLUDE_PRIVATE_RESIDENTIAL,HIGH,name_has_private_internal_keyword:아파트,"https://map.kakao.com/link/map/35.1254282,128.9684726","https://map.kakao.com/link/roadview/35.1254282,128.9684726"
stairs:2328,사상구,사상중흥S클래스그랜드센트럴아파트,35.1706000,128.9834365,0.00,63.13,100035816040C03910100000000009913,9.2,busan-road-polygon:172855,,13.3,RDQ006,62.2,crosswalk:2299,오약국,false,93.2,barrier_free_facility:11639,사상고려병원,의료·보건,false,STC-2088,1,P3,30,LOW_PRIORITY,"도로 polygon 20m 이내, 폭/면적 기준 큼",RESIDENTIAL_MANUAL_REVIEW,EXCLUDE_PRIVATE_RESIDENTIAL,HIGH,name_has_private_internal_keyword:아파트,"https://map.kakao.com/link/map/35.1706000,128.9834365","https://map.kakao.com/link/roadview/35.1706000,128.9834365"
stairs:2353,사상구,부산감전LH아파트,35.1564984,128.9923741,0.00,56.08,100035816040C03910100000000009938,16.7,busan-road-polygon:175732,,2.1,RDQ006,173.0,crosswalk:2313,북부산세무서,false,54.4,barrier_free_facility:11871,경로당,복지·돌봄,false,STC-2112,1,P3,30,LOW_PRIORITY,"도로 polygon 20m 이내, 폭/면적 기준 큼",RESIDENTIAL_MANUAL_REVIEW,EXCLUDE_PRIVATE_RESIDENTIAL,HIGH,name_has_private_internal_keyword:아파트,"https://map.kakao.com/link/map/35.1564984,128.9923741","https://map.kakao.com/link/roadview/35.1564984,128.9923741"
stairs:2117,사상구,한일아파트,35.1924654,128.9935955,0.00,27.99,100035816030C03910100000000009442,5.1,busan-road-polygon:168933,,7.3,RDQ006,76.2,crosswalk:2223,성금당(성일교회),false,194.3,barrier_free_facility:11536,스파캐슬,음식·카페,false,STC-1904,1,P3,25,LOW_PRIORITY,도로 polygon 20m 이내,RESIDENTIAL_MANUAL_REVIEW,EXCLUDE_PRIVATE_RESIDENTIAL,HIGH,name_has_private_internal_keyword:아파트,"https://map.kakao.com/link/map/35.1924654,128.9935955","https://map.kakao.com/link/roadview/35.1924654,128.9935955"
stairs:2503,사상구,구학마을아파트,35.1373620,128.9913806,0.00,9.95,100035816050C03910100000000040382,5.1,busan-road-polygon:181250,,15.6,RDQ006,203.3,crosswalk:2158,구학초등학교,false,221.0,public_toilet:1797,사상구선거관리위원회,화장실,false,STC-2252,1,P3,25,LOW_PRIORITY,도로 polygon 20m 이내,RESIDENTIAL_MANUAL_REVIEW,EXCLUDE_PRIVATE_RESIDENTIAL,HIGH,name_has_private_internal_keyword:아파트,"https://map.kakao.com/link/map/35.1373620,128.9913806","https://map.kakao.com/link/roadview/35.1373620,128.9913806"
stairs:2710,사상구,엄궁2차한신아파트,35.1238872,128.9710168,0.00,10.14,100035816059C03910100000000040631,6.4,busan-road-polygon:177851,,19.9,RDQ006,51.0,crosswalk:2229,엄궁동 한신2차아파트앞,false,276.7,barrier_free_facility:12161,한솔숲빌딩,음식·카페,false,STC-2435,3,P3,25,LOW_PRIORITY,"도로 polygon 20m 이내, 15m 이내 계단 클러스터",RESIDENTIAL_MANUAL_REVIEW,EXCLUDE_PRIVATE_RESIDENTIAL,HIGH,name_has_private_internal_keyword:아파트,"https://map.kakao.com/link/map/35.1238872,128.9710168","https://map.kakao.com/link/roadview/35.1238872,128.9710168"
stairs:2670,사상구,엄궁대림아파트,35.1292397,128.9773251,0.00,42.44,100035816050C03910100000000040578,6.5,busan-road-polygon:179192,,14.8,RDQ006,277.9,crosswalk:2232,엄궁초교후문앞,false,425.0,barrier_free_facility:12149,백산빌딩,음식·카페,false,STC-2397,1,P3,25,LOW_PRIORITY,도로 polygon 20m 이내,RESIDENTIAL_MANUAL_REVIEW,EXCLUDE_PRIVATE_RESIDENTIAL,HIGH,name_has_private_internal_keyword:아파트,"https://map.kakao.com/link/map/35.1292397,128.9773251","https://map.kakao.com/link/roadview/35.1292397,128.9773251"
stairs:2153,사상구,우신모라아파트,35.1844484,128.9930497,0.00,7.98,100035816030C03910100000000009729,6.6,busan-road-polygon:169789,,4.7,RDQ006,169.6,crosswalk:2228,동백유치원,false,89.0,charging_station:111,모라3동 행정복지센터,전동보장구 충전소,false,STC-1939,2,P3,25,LOW_PRIORITY,"도로 polygon 20m 이내, 15m 이내 계단 클러스터",RESIDENTIAL_MANUAL_REVIEW,EXCLUDE_PRIVATE_RESIDENTIAL,HIGH,name_has_private_internal_keyword:아파트,"https://map.kakao.com/link/map/35.1844484,128.9930497","https://map.kakao.com/link/roadview/35.1844484,128.9930497"
stairs:2563,사상구,학장벽산아파트,35.1399186,128.9900763,0.00,1.44,100035816050C03910100000000040444,8.1,busan-road-polygon:180698,,40.0,RDQ006,172.8,crosswalk:2318,학장벽산아파트,false,79.9,public_toilet:1792,학장동우체국,화장실,false,STC-2268,4,P3,25,LOW_PRIORITY,"도로 polygon 20m 이내, 15m 이내 계단 클러스터",RESIDENTIAL_MANUAL_REVIEW,EXCLUDE_PRIVATE_RESIDENTIAL,HIGH,name_has_private_internal_keyword:아파트,"https://map.kakao.com/link/map/35.1399186,128.9900763","https://map.kakao.com/link/roadview/35.1399186,128.9900763"
stairs:2121,사상구,모라벽산아파트,35.1905540,128.9942116,0.00,13.47,100035816030C03910100000000009446,8.5,busan-road-polygon:169541,,10.1,RDQ006,209.9,crosswalk:2203,,false,379.5,barrier_free_facility:11566,모라동 곡상골경로당,복지·돌봄,false,STC-1908,1,P3,25,LOW_PRIORITY,도로 polygon 20m 이내,RESIDENTIAL_MANUAL_REVIEW,EXCLUDE_PRIVATE_RESIDENTIAL,HIGH,name_has_private_internal_keyword:아파트,"https://map.kakao.com/link/map/35.1905540,128.9942116","https://map.kakao.com/link/roadview/35.1905540,128.9942116"
stairs:2540,사상구,학장벽산아파트,35.1403680,128.9886887,0.00,10.97,100035816050C03910100000000040419,8.9,busan-road-polygon:180706,,15.6,RDQ006,88.6,crosswalk:2318,학장벽산아파트,false,56.5,public_toilet:1792,학장동우체국,화장실,false,STC-2282,1,P3,25,LOW_PRIORITY,도로 polygon 20m 이내,RESIDENTIAL_MANUAL_REVIEW,EXCLUDE_PRIVATE_RESIDENTIAL,HIGH,name_has_private_internal_keyword:아파트,"https://map.kakao.com/link/map/35.1403680,128.9886887","https://map.kakao.com/link/roadview/35.1403680,128.9886887"
stairs:2495,사상구,학장벽산아파트,35.1391505,128.9910084,0.00,31.69,100035816050C03910100000000040372,10.0,busan-road-polygon:181251,,9.4,RDQ006,292.6,crosswalk:2318,학장벽산아파트,false,93.4,public_toilet:1797,사상구선거관리위원회,화장실,false,STC-2245,1,P3,25,LOW_PRIORITY,도로 polygon 20m 이내,RESIDENTIAL_MANUAL_REVIEW,EXCLUDE_PRIVATE_RESIDENTIAL,HIGH,name_has_private_internal_keyword:아파트,"https://map.kakao.com/link/map/35.1391505,128.9910084","https://map.kakao.com/link/roadview/35.1391505,128.9910084"
stairs:2576,사상구,학장동2차삼성아파트,35.1407091,128.9839561,0.00,2.66,100035816050C03910100000000040457,10.7,busan-road-polygon:180401,,17.0,RDQ006,93.1,crosswalk:2168,학장삼성아파트,false,56.4,barrier_free_facility:12108,세종빌딩,의료·보건,false,STC-2279,3,P3,25,LOW_PRIORITY,"도로 polygon 20m 이내, 15m 이내 계단 클러스터",RESIDENTIAL_MANUAL_REVIEW,EXCLUDE_PRIVATE_RESIDENTIAL,HIGH,name_has_private_internal_keyword:아파트,"https://map.kakao.com/link/map/35.1407091,128.9839561","https://map.kakao.com/link/roadview/35.1407091,128.9839561"
stairs:2215,사상구,자유아파트,35.1804401,128.9899577,0.00,7.91,100035816030C03910100000000009792,11.4,busan-road-polygon:170195,,11.8,RDQ006,203.7,crosswalk:2324,자유아파트,false,179.6,public_toilet:1798,부산북부고용노동지청,화장실,false,STC-1987,1,P3,25,LOW_PRIORITY,도로 polygon 20m 이내,RESIDENTIAL_MANUAL_REVIEW,EXCLUDE_PRIVATE_RESIDENTIAL,HIGH,name_has_private_internal_keyword:아파트,"https://map.kakao.com/link/map/35.1804401,128.9899577","https://map.kakao.com/link/roadview/35.1804401,128.9899577"
stairs:2711,사상구,엄궁2차한신아파트,35.1238645,128.9709454,0.00,15.03,100035816059C03910100000000040632,11.7,busan-road-polygon:177851,,19.9,RDQ006,48.8,crosswalk:2229,엄궁동 한신2차아파트앞,false,270.9,barrier_free_facility:12161,한솔숲빌딩,음식·카페,false,STC-2435,3,P3,25,LOW_PRIORITY,"도로 polygon 20m 이내, 15m 이내 계단 클러스터",RESIDENTIAL_MANUAL_REVIEW,EXCLUDE_PRIVATE_RESIDENTIAL,HIGH,name_has_private_internal_keyword:아파트,"https://map.kakao.com/link/map/35.1238645,128.9709454","https://map.kakao.com/link/roadview/35.1238645,128.9709454"
stairs:2507,사상구,BMC학장1지구아파트,35.1375817,128.9907258,0.00,6.20,100035816050C03910100000000040386,12.4,busan-road-polygon:181250,,15.6,RDQ006,264.4,crosswalk:2158,구학초등학교,false,170.7,public_toilet:1797,사상구선거관리위원회,화장실,false,STC-2256,1,P3,25,LOW_PRIORITY,도로 polygon 20m 이내,RESIDENTIAL_MANUAL_REVIEW,EXCLUDE_PRIVATE_RESIDENTIAL,HIGH,name_has_private_internal_keyword:아파트,"https://map.kakao.com/link/map/35.1375817,128.9907258","https://map.kakao.com/link/roadview/35.1375817,128.9907258"
stairs:2714,사상구,엄궁2차한신아파트,35.1238656,128.9709268,0.00,43.58,100035816059C03910100000000040635,12.4,busan-road-polygon:177851,,19.9,RDQ006,47.8,crosswalk:2229,엄궁동 한신2차아파트앞,false,269.2,barrier_free_facility:12161,한솔숲빌딩,음식·카페,false,STC-2435,3,P3,25,LOW_PRIORITY,"도로 polygon 20m 이내, 15m 이내 계단 클러스터",RESIDENTIAL_MANUAL_REVIEW,EXCLUDE_PRIVATE_RESIDENTIAL,HIGH,name_has_private_internal_keyword:아파트,"https://map.kakao.com/link/map/35.1238656,128.9709268","https://map.kakao.com/link/roadview/35.1238656,128.9709268"
stairs:2616,사상구,엄궁대림아파트,35.1282731,128.9786874,0.00,44.01,100035816050C03910100000000040501,12.7,busan-road-polygon:179192,,14.8,RDQ006,361.1,crosswalk:2249,엄궁제일유치원 주변,false,528.3,barrier_free_facility:12149,백산빌딩,음식·카페,false,STC-2349,1,P3,25,LOW_PRIORITY,도로 polygon 20m 이내,RESIDENTIAL_MANUAL_REVIEW,EXCLUDE_PRIVATE_RESIDENTIAL,HIGH,name_has_private_internal_keyword:아파트,"https://map.kakao.com/link/map/35.1282731,128.9786874","https://map.kakao.com/link/roadview/35.1282731,128.9786874"
stairs:2453,사상구,벽산제일타워맨션아파트,35.1553896,128.9972176,0.00,14.81,100035816040C03910100000000010153,13.7,busan-road-polygon:175515,,5.6,RDQ006,129.4,crosswalk:2244,신화빌라,false,223.3,barrier_free_facility:11945,주례1동온골경로당,복지·돌봄,false,STC-2206,1,P3,25,LOW_PRIORITY,도로 polygon 20m 이내,RESIDENTIAL_MANUAL_REVIEW,EXCLUDE_PRIVATE_RESIDENTIAL,HIGH,name_has_private_internal_keyword:아파트|맨션,"https://map.kakao.com/link/map/35.1553896,128.9972176","https://map.kakao.com/link/roadview/35.1553896,128.9972176"
stairs:2480,사상구,구학마을아파트,35.1370859,128.9918398,0.00,6.53,100035816050C03910100000000040342,13.7,busan-road-polygon:181250,,15.6,RDQ006,163.8,crosswalk:2158,구학초등학교,false,222.8,barrier_free_facility:12089,구립목욕탕,복지·돌봄,false,STC-2230,1,P3,25,LOW_PRIORITY,도로 polygon 20m 이내,RESIDENTIAL_MANUAL_REVIEW,EXCLUDE_PRIVATE_RESIDENTIAL,HIGH,name_has_private_internal_keyword:아파트,"https://map.kakao.com/link/map/35.1370859,128.9918398","https://map.kakao.com/link/roadview/35.1370859,128.9918398"
stairs:2608,사상구,엄궁코오롱하늘채아파트,35.1268844,128.9782052,0.00,24.85,100035816050C03910100000000040493,14.0,busan-road-polygon:178297,,14.6,RDQ006,212.8,crosswalk:2249,엄궁제일유치원 주변,false,500.3,barrier_free_facility:12149,백산빌딩,음식·카페,false,STC-2341,1,P3,25,LOW_PRIORITY,도로 polygon 20m 이내,RESIDENTIAL_MANUAL_REVIEW,EXCLUDE_PRIVATE_RESIDENTIAL,HIGH,name_has_private_internal_keyword:아파트,"https://map.kakao.com/link/map/35.1268844,128.9782052","https://map.kakao.com/link/roadview/35.1268844,128.9782052"
stairs:2699,사상구,신엄궁대동아파트,35.1245365,128.9723830,0.00,7.19,100035816059C03910100000000040616,14.1,busan-road-polygon:177737,,10.5,RDQ006,162.8,crosswalk:2229,엄궁동 한신2차아파트앞,false,331.0,barrier_free_facility:12148,정향복지재단요양원,복지·돌봄,false,STC-2426,1,P3,25,LOW_PRIORITY,도로 polygon 20m 이내,RESIDENTIAL_MANUAL_REVIEW,EXCLUDE_PRIVATE_RESIDENTIAL,HIGH,name_has_private_internal_keyword:아파트,"https://map.kakao.com/link/map/35.1245365,128.9723830","https://map.kakao.com/link/roadview/35.1245365,128.9723830"
stairs:2231,사상구,부원파크타운아파트,35.1789603,128.9902152,0.00,4.62,100035816030C03910100000000009808,14.2,busan-road-polygon:170254,,13.4,RDQ006,154.6,crosswalk:2326,북부노동청,false,72.0,barrier_free_facility:11612,이너피스병원,의료·보건,false,STC-2003,1,P3,25,LOW_PRIORITY,도로 polygon 20m 이내,RESIDENTIAL_MANUAL_REVIEW,EXCLUDE_PRIVATE_RESIDENTIAL,HIGH,name_has_private_internal_keyword:아파트,"https://map.kakao.com/link/map/35.1789603,128.9902152","https://map.kakao.com/link/roadview/35.1789603,128.9902152"
stairs:2613,사상구,금강아파트,35.1363295,128.9782336,0.00,23.86,100035816050C03910100000000040498,14.3,busan-road-polygon:179617,,11.7,RDQ006,201.1,crosswalk:2164,엄궁아파트(성황리마트앞),false,180.9,barrier_free_facility:12119,일반음식점,음식·카페,false,STC-2346,1,P3,25,LOW_PRIORITY,도로 polygon 20m 이내,RESIDENTIAL_MANUAL_REVIEW,EXCLUDE_PRIVATE_RESIDENTIAL,HIGH,name_has_private_internal_keyword:아파트,"https://map.kakao.com/link/map/35.1363295,128.9782336","https://map.kakao.com/link/roadview/35.1363295,128.9782336"
stairs:2224,사상구,자유아파트,35.1794145,128.9894236,0.00,4.52,100035816030C03910100000000009801,14.6,busan-road-polygon:170193,,12.3,RDQ006,106.7,crosswalk:2326,북부노동청,false,57.7,public_toilet:1798,부산북부고용노동지청,화장실,false,STC-1996,1,P3,25,LOW_PRIORITY,도로 polygon 20m 이내,RESIDENTIAL_MANUAL_REVIEW,EXCLUDE_PRIVATE_RESIDENTIAL,HIGH,name_has_private_internal_keyword:아파트,"https://map.kakao.com/link/map/35.1794145,128.9894236","https://map.kakao.com/link/roadview/35.1794145,128.9894236"
stairs:2713,사상구,엄궁2차한신아파트,35.1234527,128.9716624,0.00,9.20,100035816059C03910100000000040634,14.8,busan-road-polygon:177851,,19.9,RDQ006,126.7,crosswalk:2229,엄궁동 한신2차아파트앞,false,345.6,barrier_free_facility:12161,한솔숲빌딩,음식·카페,false,STC-2437,1,P3,25,LOW_PRIORITY,도로 polygon 20m 이내,RESIDENTIAL_MANUAL_REVIEW,EXCLUDE_PRIVATE_RESIDENTIAL,HIGH,name_has_private_internal_keyword:아파트,"https://map.kakao.com/link/map/35.1234527,128.9716624","https://map.kakao.com/link/roadview/35.1234527,128.9716624"
stairs:2702,사상구,신엄궁대동아파트,35.1243646,128.9727064,0.00,9.93,100035816059C03910100000000040621,15.3,busan-road-polygon:177737,,10.5,RDQ006,150.4,crosswalk:2230,동궁초교입구,false,354.6,barrier_free_facility:12148,정향복지재단요양원,복지·돌봄,false,STC-2429,1,P3,25,LOW_PRIORITY,도로 polygon 20m 이내,RESIDENTIAL_MANUAL_REVIEW,EXCLUDE_PRIVATE_RESIDENTIAL,HIGH,name_has_private_internal_keyword:아파트,"https://map.kakao.com/link/map/35.1243646,128.9727064","https://map.kakao.com/link/roadview/35.1243646,128.9727064"
stairs:2609,사상구,엄궁코오롱하늘채아파트,35.1277772,128.9796005,0.00,8.59,100035816050C03910100000000040494,15.5,busan-road-polygon:179189,,7.0,RDQ006,373.4,crosswalk:2249,엄궁제일유치원 주변,false,611.6,barrier_free_facility:12149,백산빌딩,음식·카페,false,STC-2342,1,P3,25,LOW_PRIORITY,도로 polygon 20m 이내,RESIDENTIAL_MANUAL_REVIEW,EXCLUDE_PRIVATE_RESIDENTIAL,HIGH,name_has_private_internal_keyword:아파트,"https://map.kakao.com/link/map/35.1277772,128.9796005","https://map.kakao.com/link/roadview/35.1277772,128.9796005"
stairs:2631,사상구,학장무학아파트,35.1362872,128.9776063,0.00,19.50,100035816050C03910100000000040538,16.4,busan-road-polygon:179617,,11.7,RDQ006,144.2,crosswalk:2165,엄궁아파트(성황리마트앞),false,155.7,barrier_free_facility:12119,일반음식점,음식·카페,false,STC-2364,1,P3,25,LOW_PRIORITY,도로 polygon 20m 이내,RESIDENTIAL_MANUAL_REVIEW,EXCLUDE_PRIVATE_RESIDENTIAL,HIGH,name_has_private_internal_keyword:아파트,"https://map.kakao.com/link/map/35.1362872,128.9776063","https://map.kakao.com/link/roadview/35.1362872,128.9776063"
stairs:2486,사상구,학장대림아파트,35.1354016,128.9918137,0.00,13.87,100035816050C03910100000000040348,17.1,busan-road-polygon:181327,,11.0,RDQ006,270.0,crosswalk:2158,구학초등학교,false,359.9,barrier_free_facility:12089,구립목욕탕,복지·돌봄,false,STC-2236,1,P3,25,LOW_PRIORITY,도로 polygon 20m 이내,RESIDENTIAL_MANUAL_REVIEW,EXCLUDE_PRIVATE_RESIDENTIAL,HIGH,name_has_private_internal_keyword:아파트,"https://map.kakao.com/link/map/35.1354016,128.9918137","https://map.kakao.com/link/roadview/35.1354016,128.9918137"
stairs:2218,사상구,자유아파트,35.1801544,128.9897892,0.00,5.15,100035816030C03910100000000009795,17.2,busan-road-polygon:170193,,12.3,RDQ006,189.7,crosswalk:2326,북부노동청,false,144.5,public_toilet:1798,부산북부고용노동지청,화장실,false,STC-1990,1,P3,25,LOW_PRIORITY,도로 polygon 20m 이내,RESIDENTIAL_MANUAL_REVIEW,EXCLUDE_PRIVATE_RESIDENTIAL,HIGH,name_has_private_internal_keyword:아파트,"https://map.kakao.com/link/map/35.1801544,128.9897892","https://map.kakao.com/link/roadview/35.1801544,128.9897892"
stairs:2163,사상구,모라1단지주공아파트,35.1844644,128.9981039,0.00,8.14,100035816030C03910100000000009739,18.6,busan-road-polygon:169554,,15.5,RDQ006,192.3,crosswalk:2238,모산초교,false,139.7,charging_station:109,백양종합사회복지관,전동보장구 충전소,false,STC-1948,1,P3,25,LOW_PRIORITY,도로 polygon 20m 이내,RESIDENTIAL_MANUAL_REVIEW,EXCLUDE_PRIVATE_RESIDENTIAL,HIGH,name_has_private_internal_keyword:아파트|주공,"https://map.kakao.com/link/map/35.1844644,128.9981039","https://map.kakao.com/link/roadview/35.1844644,128.9981039"
stairs:2524,사상구,학장벽산아파트,35.1398804,128.9899254,0.00,1.29,100035816050C03910100000000040403,18.9,busan-road-polygon:180698,,40.0,RDQ006,168.3,crosswalk:2318,학장벽산아파트,false,70.0,public_toilet:1792,학장동우체국,화장실,false,STC-2268,4,P3,25,LOW_PRIORITY,"도로 polygon 20m 이내, 15m 이내 계단 클러스터",RESIDENTIAL_MANUAL_REVIEW,EXCLUDE_PRIVATE_RESIDENTIAL,HIGH,name_has_private_internal_keyword:아파트,"https://map.kakao.com/link/map/35.1398804,128.9899254","https://map.kakao.com/link/roadview/35.1398804,128.9899254"
stairs:2211,사상구,우신모라아파트,35.1830820,128.9915607,0.00,8.14,100035816030C03910100000000009787,19.7,busan-road-polygon:169801,,8.9,RDQ006,262.3,crosswalk:2323,자유아파트,false,94.7,charging_station:105,사상구청소년수련관,전동보장구 충전소,false,STC-1986,1,P3,25,LOW_PRIORITY,도로 polygon 20m 이내,RESIDENTIAL_MANUAL_REVIEW,EXCLUDE_PRIVATE_RESIDENTIAL,HIGH,name_has_private_internal_keyword:아파트,"https://map.kakao.com/link/map/35.1830820,128.9915607","https://map.kakao.com/link/roadview/35.1830820,128.9915607"
stairs:2680,사상구,엄궁2차한신아파트,35.1242991,128.9683331,0.00,85.74,100035816059C03910100000000040597,32.7,busan-road-polygon:177851,,19.9,RDQ006,58.2,crosswalk:2160,고구려참숯갈비,false,28.0,barrier_free_facility:12161,한솔숲빌딩,음식·카페,true,STC-2407,1,P4,20,LOW_PRIORITY,"도로 polygon 20m 초과, 편의시설 50m 이내, 폭/면적 기준 큼",RESIDENTIAL_MANUAL_REVIEW,EXCLUDE_PRIVATE_RESIDENTIAL,HIGH,name_has_private_internal_keyword:아파트,"https://map.kakao.com/link/map/35.1242991,128.9683331","https://map.kakao.com/link/roadview/35.1242991,128.9683331"
stairs:2541,사상구,학장벽산아파트,35.1400122,128.9888245,0.00,1.65,100035816050C03910100000000040420,33.8,busan-road-polygon:180706,,15.6,RDQ006,126.0,crosswalk:2318,학장벽산아파트,false,48.4,public_toilet:1792,학장동우체국,화장실,true,STC-2283,2,P4,15,LOW_PRIORITY,"도로 polygon 20m 초과, 편의시설 50m 이내, 15m 이내 계단 클러스터",RESIDENTIAL_MANUAL_REVIEW,EXCLUDE_PRIVATE_RESIDENTIAL,HIGH,name_has_private_internal_keyword:아파트,"https://map.kakao.com/link/map/35.1400122,128.9888245","https://map.kakao.com/link/roadview/35.1400122,128.9888245"
stairs:2539,사상구,학장벽산아파트,35.1402164,128.9889414,0.00,6.42,100035816050C03910100000000040418,37.4,busan-road-polygon:180706,,15.6,RDQ006,103.2,crosswalk:2318,학장벽산아파트,false,31.4,public_toilet:1792,학장동우체국,화장실,true,STC-2281,1,P4,15,LOW_PRIORITY,"도로 polygon 20m 초과, 편의시설 50m 이내",RESIDENTIAL_MANUAL_REVIEW,EXCLUDE_PRIVATE_RESIDENTIAL,HIGH,name_has_private_internal_keyword:아파트,"https://map.kakao.com/link/map/35.1402164,128.9889414","https://map.kakao.com/link/roadview/35.1402164,128.9889414"
stairs:2543,사상구,학장벽산아파트,35.1400511,128.9890113,0.00,1.18,100035816050C03910100000000040422,49.7,busan-road-polygon:180706,,15.6,RDQ006,121.9,crosswalk:2318,학장벽산아파트,false,31.9,public_toilet:1792,학장동우체국,화장실,true,STC-2285,1,P4,15,LOW_PRIORITY,"도로 polygon 20m 초과, 편의시설 50m 이내",RESIDENTIAL_MANUAL_REVIEW,EXCLUDE_PRIVATE_RESIDENTIAL,HIGH,name_has_private_internal_keyword:아파트,"https://map.kakao.com/link/map/35.1400511,128.9890113","https://map.kakao.com/link/roadview/35.1400511,128.9890113"
stairs:2564,사상구,학장벽산아파트,35.1393334,128.9900570,0.00,8.36,100035816050C03910100000000040445,64.5,busan-road-polygon:180698,,40.0,RDQ006,226.7,crosswalk:2318,학장벽산아파트,false,37.3,public_toilet:1797,사상구선거관리위원회,화장실,true,STC-2302,1,P4,15,LOW_PRIORITY,"도로 polygon 20m 초과, 편의시설 50m 이내",RESIDENTIAL_MANUAL_REVIEW,EXCLUDE_PRIVATE_RESIDENTIAL,HIGH,name_has_private_internal_keyword:아파트,"https://map.kakao.com/link/map/35.1393334,128.9900570","https://map.kakao.com/link/roadview/35.1393334,128.9900570"
stairs:2523,사상구,학장벽산아파트,35.1390470,128.9895480,0.00,1.38,100035816050C03910100000000040402,116.5,busan-road-polygon:179103,,1.9,RDQ006,240.1,crosswalk:2318,학장벽산아파트,false,41.5,public_toilet:1797,사상구선거관리위원회,화장실,true,STC-2271,1,P4,15,LOW_PRIORITY,"도로 polygon 20m 초과, 편의시설 50m 이내",RESIDENTIAL_MANUAL_REVIEW,EXCLUDE_PRIVATE_RESIDENTIAL,HIGH,name_has_private_internal_keyword:아파트,"https://map.kakao.com/link/map/35.1390470,128.9895480","https://map.kakao.com/link/roadview/35.1390470,128.9895480"
stairs:2712,사상구,엄궁2차한신아파트,35.1229343,128.9722453,0.00,68.99,100035816059C03910100000000040633,25.8,busan-road-polygon:177851,,19.9,RDQ006,106.0,crosswalk:2230,동궁초교입구,false,415.1,barrier_free_facility:12161,한솔숲빌딩,음식·카페,false,STC-2436,1,P4,5,LOW_PRIORITY,"도로 polygon 20m 초과, 폭/면적 기준 큼",RESIDENTIAL_MANUAL_REVIEW,EXCLUDE_PRIVATE_RESIDENTIAL,HIGH,name_has_private_internal_keyword:아파트,"https://map.kakao.com/link/map/35.1229343,128.9722453","https://map.kakao.com/link/roadview/35.1229343,128.9722453"
stairs:2560,사상구,BMC학장1지구아파트,35.1383525,128.9892006,0.00,50.46,100035816050C03910100000000040441,33.4,busan-road-polygon:179103,,1.9,RDQ006,311.1,crosswalk:2318,학장벽산아파트,false,102.3,public_toilet:1797,사상구선거관리위원회,화장실,false,STC-2299,1,P4,5,LOW_PRIORITY,"도로 polygon 20m 초과, 폭/면적 기준 큼",RESIDENTIAL_MANUAL_REVIEW,EXCLUDE_PRIVATE_RESIDENTIAL,HIGH,name_has_private_internal_keyword:아파트,"https://map.kakao.com/link/map/35.1383525,128.9892006","https://map.kakao.com/link/roadview/35.1383525,128.9892006"
stairs:2458,사상구,주례경동리인아파트,35.1569945,128.9975570,0.00,124.61,100035816040C03910100000000010158,43.9,busan-road-polygon:175620,,14.6,RDQ006,265.1,crosswalk:2282,주감여중,false,404.0,barrier_free_facility:11945,주례1동온골경로당,복지·돌봄,false,STC-2211,1,P4,5,LOW_PRIORITY,"도로 polygon 20m 초과, 폭/면적 기준 큼",RESIDENTIAL_MANUAL_REVIEW,EXCLUDE_PRIVATE_RESIDENTIAL,HIGH,name_has_private_internal_keyword:아파트,"https://map.kakao.com/link/map/35.1569945,128.9975570","https://map.kakao.com/link/roadview/35.1569945,128.9975570"
stairs:2599,사상구,학장반도보리타운아파트,35.1370096,128.9811866,0.00,74.68,100035816050C03910100000000040480,60.1,busan-road-polygon:179170,,0.5,RDQ005,270.7,crosswalk:2155,학장목화아파트,false,358.5,barrier_free_facility:12112,새밭마을 에코하우스,복지·돌봄,false,STC-2333,1,P4,5,LOW_PRIORITY,"도로 polygon 20m 초과, 폭/면적 기준 큼",RESIDENTIAL_MANUAL_REVIEW,EXCLUDE_PRIVATE_RESIDENTIAL,HIGH,name_has_private_internal_keyword:아파트,"https://map.kakao.com/link/map/35.1370096,128.9811866","https://map.kakao.com/link/roadview/35.1370096,128.9811866"
stairs:2087,사상구,모라주공3단지아파트,35.1840056,129.0014911,0.00,90.70,100035913021C03910100000000008903,61.5,busan-road-polygon:181588,,15.4,RDQ006,70.2,crosswalk:2239,모동초교,false,100.9,barrier_free_facility:11533,모라3동 우체국,행정·공공기관,false,STC-1874,1,P4,5,LOW_PRIORITY,"도로 polygon 20m 초과, 폭/면적 기준 큼",RESIDENTIAL_MANUAL_REVIEW,EXCLUDE_PRIVATE_RESIDENTIAL,HIGH,name_has_private_internal_keyword:아파트|주공,"https://map.kakao.com/link/map/35.1840056,129.0014911","https://map.kakao.com/link/roadview/35.1840056,129.0014911"
stairs:2685,사상구,엄궁롯데캐슬리버아파트,35.1273374,128.9771293,0.00,59.89,100035816050C03910100000000040602,81.4,busan-road-polygon:178297,,14.6,RDQ006,207.0,crosswalk:2249,엄궁제일유치원 주변,false,393.4,barrier_free_facility:12149,백산빌딩,음식·카페,false,STC-2412,1,P4,5,LOW_PRIORITY,"도로 polygon 20m 초과, 폭/면적 기준 큼",RESIDENTIAL_MANUAL_REVIEW,EXCLUDE_PRIVATE_RESIDENTIAL,HIGH,name_has_private_internal_keyword:아파트,"https://map.kakao.com/link/map/35.1273374,128.9771293","https://map.kakao.com/link/roadview/35.1273374,128.9771293"
stairs:2600,사상구,학장반도보리타운아파트,35.1374517,128.9816544,0.00,103.52,100035816050C03910100000000040481,82.2,busan-road-polygon:179170,,0.5,RDQ005,269.0,crosswalk:2155,학장목화아파트,false,344.5,restaurant:203,오르디,음식·카페,false,STC-2334,1,P4,5,LOW_PRIORITY,"도로 polygon 20m 초과, 폭/면적 기준 큼",RESIDENTIAL_MANUAL_REVIEW,EXCLUDE_PRIVATE_RESIDENTIAL,HIGH,name_has_private_internal_keyword:아파트,"https://map.kakao.com/link/map/35.1374517,128.9816544","https://map.kakao.com/link/roadview/35.1374517,128.9816544"
stairs:2596,사상구,학장반도보리타운아파트,35.1374922,128.9801478,0.00,88.98,100035816050C03910100000000040477,162.5,busan-road-polygon:179170,,0.5,RDQ005,172.4,crosswalk:2155,학장목화아파트,false,258.1,barrier_free_facility:12112,새밭마을 에코하우스,복지·돌봄,false,STC-2330,1,P4,5,LOW_PRIORITY,"도로 polygon 20m 초과, 폭/면적 기준 큼",RESIDENTIAL_MANUAL_REVIEW,EXCLUDE_PRIVATE_RESIDENTIAL,HIGH,name_has_private_internal_keyword:아파트,"https://map.kakao.com/link/map/35.1374922,128.9801478","https://map.kakao.com/link/roadview/35.1374922,128.9801478"
stairs:2604,사상구,목화아파트,35.1377922,128.9804649,0.00,66.59,100035816050C03910100000000040485,169.0,busan-road-polygon:179170,,0.5,RDQ005,162.1,crosswalk:2155,학장목화아파트,false,250.0,barrier_free_facility:12112,새밭마을 에코하우스,복지·돌봄,false,STC-2336,2,P4,5,LOW_PRIORITY,"도로 polygon 20m 초과, 폭/면적 기준 큼, 15m 이내 계단 클러스터",RESIDENTIAL_MANUAL_REVIEW,EXCLUDE_PRIVATE_RESIDENTIAL,HIGH,name_has_private_internal_keyword:아파트,"https://map.kakao.com/link/map/35.1377922,128.9804649","https://map.kakao.com/link/roadview/35.1377922,128.9804649"
stairs:2472,사상구,구학마을아파트,35.1363527,128.9931543,0.00,2.78,100035816050C03910100000000040332,20.4,busan-road-polygon:181309,,11.8,RDQ006,116.7,crosswalk:2158,구학초등학교,false,210.9,barrier_free_facility:12089,구립목욕탕,복지·돌봄,false,STC-2224,1,P4,0,LOW_PRIORITY,도로 polygon 20m 초과,RESIDENTIAL_MANUAL_REVIEW,EXCLUDE_PRIVATE_RESIDENTIAL,HIGH,name_has_private_internal_keyword:아파트,"https://map.kakao.com/link/map/35.1363527,128.9931543","https://map.kakao.com/link/roadview/35.1363527,128.9931543"
stairs:2197,사상구,모라무학아파트,35.1826742,128.9891790,0.00,7.78,100035816030C03910100000000009773,20.8,busan-road-polygon:170777,,30.1,RDQ006,43.5,crosswalk:2323,자유아파트,false,144.6,charging_station:105,사상구청소년수련관,전동보장구 충전소,false,STC-1974,1,P4,0,LOW_PRIORITY,도로 polygon 20m 초과,RESIDENTIAL_MANUAL_REVIEW,EXCLUDE_PRIVATE_RESIDENTIAL,HIGH,name_has_private_internal_keyword:아파트,"https://map.kakao.com/link/map/35.1826742,128.9891790","https://map.kakao.com/link/roadview/35.1826742,128.9891790"
stairs:2683,사상구,신엄궁대동아파트,35.1244962,128.9725848,0.00,8.31,100035816059C03910100000000040600,20.8,busan-road-polygon:177737,,10.5,RDQ006,168.3,crosswalk:2230,동궁초교입구,false,338.2,barrier_free_facility:12148,정향복지재단요양원,복지·돌봄,false,STC-2410,1,P4,0,LOW_PRIORITY,도로 polygon 20m 초과,RESIDENTIAL_MANUAL_REVIEW,EXCLUDE_PRIVATE_RESIDENTIAL,HIGH,name_has_private_internal_keyword:아파트,"https://map.kakao.com/link/map/35.1244962,128.9725848","https://map.kakao.com/link/roadview/35.1244962,128.9725848"
stairs:2482,사상구,학장대림아파트,35.1354120,128.9926366,0.00,13.82,100035816050C03910100000000040344,20.9,busan-road-polygon:181319,,12.2,RDQ006,231.2,crosswalk:2158,구학초등학교,false,325.1,barrier_free_facility:12089,구립목욕탕,복지·돌봄,false,STC-2232,1,P4,0,LOW_PRIORITY,도로 polygon 20m 초과,RESIDENTIAL_MANUAL_REVIEW,EXCLUDE_PRIVATE_RESIDENTIAL,HIGH,name_has_private_internal_keyword:아파트,"https://map.kakao.com/link/map/35.1354120,128.9926366","https://map.kakao.com/link/roadview/35.1354120,128.9926366"
stairs:2488,사상구,학장대림아파트,35.1354185,128.9920306,0.00,13.86,100035816050C03910100000000040350,21.2,busan-road-polygon:181327,,11.0,RDQ006,256.9,crosswalk:2158,구학초등학교,false,348.1,barrier_free_facility:12089,구립목욕탕,복지·돌봄,false,STC-2238,1,P4,0,LOW_PRIORITY,도로 polygon 20m 초과,RESIDENTIAL_MANUAL_REVIEW,EXCLUDE_PRIVATE_RESIDENTIAL,HIGH,name_has_private_internal_keyword:아파트,"https://map.kakao.com/link/map/35.1354185,128.9920306","https://map.kakao.com/link/roadview/35.1354185,128.9920306"
stairs:2232,사상구,부원파크타운아파트,35.1791208,128.9904190,0.00,4.98,100035816030C03910100000000009809,21.3,busan-road-polygon:170189,,12.8,RDQ006,175.8,crosswalk:2326,북부노동청,false,61.4,barrier_free_facility:11612,이너피스병원,의료·보건,false,STC-2002,4,P4,0,LOW_PRIORITY,"도로 polygon 20m 초과, 15m 이내 계단 클러스터",RESIDENTIAL_MANUAL_REVIEW,EXCLUDE_PRIVATE_RESIDENTIAL,HIGH,name_has_private_internal_keyword:아파트,"https://map.kakao.com/link/map/35.1791208,128.9904190","https://map.kakao.com/link/roadview/35.1791208,128.9904190"
stairs:2708,사상구,신엄궁대동아파트,35.1243030,128.9731675,0.00,15.11,100035816059C03910100000000040629,21.7,busan-road-polygon:177739,,3.8,RDQ006,131.8,crosswalk:2230,동궁초교입구,false,371.7,barrier_free_facility:12148,정향복지재단요양원,복지·돌봄,false,STC-2433,1,P4,0,LOW_PRIORITY,도로 polygon 20m 초과,RESIDENTIAL_MANUAL_REVIEW,EXCLUDE_PRIVATE_RESIDENTIAL,HIGH,name_has_private_internal_keyword:아파트,"https://map.kakao.com/link/map/35.1243030,128.9731675","https://map.kakao.com/link/roadview/35.1243030,128.9731675"
stairs:2701,사상구,신엄궁대동아파트,35.1243099,128.9728987,0.00,10.32,100035816059C03910100000000040620,22.7,busan-road-polygon:177737,,10.5,RDQ006,138.3,crosswalk:2230,동궁초교입구,false,364.3,barrier_free_facility:12148,정향복지재단요양원,복지·돌봄,false,STC-2428,1,P4,0,LOW_PRIORITY,도로 polygon 20m 초과,RESIDENTIAL_MANUAL_REVIEW,EXCLUDE_PRIVATE_RESIDENTIAL,HIGH,name_has_private_internal_keyword:아파트,"https://map.kakao.com/link/map/35.1243099,128.9728987","https://map.kakao.com/link/roadview/35.1243099,128.9728987"
stairs:2577,사상구,학장동2차삼성아파트,35.1405832,128.9839139,0.00,7.89,100035816050C03910100000000040458,22.9,busan-road-polygon:180401,,17.0,RDQ006,88.1,crosswalk:2168,학장삼성아파트,false,70.7,barrier_free_facility:12108,세종빌딩,의료·보건,false,STC-2279,3,P4,0,LOW_PRIORITY,"도로 polygon 20m 초과, 15m 이내 계단 클러스터",RESIDENTIAL_MANUAL_REVIEW,EXCLUDE_PRIVATE_RESIDENTIAL,HIGH,name_has_private_internal_keyword:아파트,"https://map.kakao.com/link/map/35.1405832,128.9839139","https://map.kakao.com/link/roadview/35.1405832,128.9839139"
stairs:2108,사상구,삼정그린코아아파트,35.1944966,128.9948341,0.00,8.81,100035816030C03910100000000009419,23.0,busan-road-polygon:168942,,7.6,RDQ006,106.0,crosswalk:2242,,false,50.1,barrier_free_facility:6434,부산북부교육청,행정·공공기관,false,STC-1895,1,P4,0,LOW_PRIORITY,도로 polygon 20m 초과,RESIDENTIAL_MANUAL_REVIEW,EXCLUDE_PRIVATE_RESIDENTIAL,HIGH,name_has_private_internal_keyword:아파트,"https://map.kakao.com/link/map/35.1944966,128.9948341","https://map.kakao.com/link/roadview/35.1944966,128.9948341"
stairs:2150,사상구,우신모라아파트,35.1848076,128.9922855,0.00,16.62,100035816030C03910100000000009726,23.8,busan-road-polygon:169737,,24.8,RDQ006,95.6,crosswalk:2228,동백유치원,false,168.6,charging_station:111,모라3동 행정복지센터,전동보장구 충전소,false,STC-1936,1,P4,0,LOW_PRIORITY,도로 polygon 20m 초과,RESIDENTIAL_MANUAL_REVIEW,EXCLUDE_PRIVATE_RESIDENTIAL,HIGH,name_has_private_internal_keyword:아파트,"https://map.kakao.com/link/map/35.1848076,128.9922855","https://map.kakao.com/link/roadview/35.1848076,128.9922855"
stairs:2667,사상구,신흥동백맨션,35.1296160,128.9757140,0.00,8.09,100035816050C03910100000000040575,25.7,busan-road-polygon:179666,,14.6,RDQ006,125.9,crosswalk:2232,엄궁초교후문앞,false,310.7,barrier_free_facility:12149,백산빌딩,음식·카페,false,STC-2394,1,P4,0,LOW_PRIORITY,도로 polygon 20m 초과,RESIDENTIAL_MANUAL_REVIEW,EXCLUDE_PRIVATE_RESIDENTIAL,HIGH,name_has_private_internal_keyword:맨션,"https://map.kakao.com/link/map/35.1296160,128.9757140","https://map.kakao.com/link/roadview/35.1296160,128.9757140"
stairs:2164,사상구,모라1단지주공아파트,35.1843930,128.9988007,0.00,8.86,100035816030C03910100000000009740,25.8,busan-road-polygon:169554,,15.5,RDQ006,255.9,crosswalk:2238,모산초교,false,89.0,charging_station:109,백양종합사회복지관,전동보장구 충전소,false,STC-1949,1,P4,0,LOW_PRIORITY,도로 polygon 20m 초과,RESIDENTIAL_MANUAL_REVIEW,EXCLUDE_PRIVATE_RESIDENTIAL,HIGH,name_has_private_internal_keyword:아파트|주공,"https://map.kakao.com/link/map/35.1843930,128.9988007","https://map.kakao.com/link/roadview/35.1843930,128.9988007"
stairs:2457,사상구,주례경동리인아파트,35.1560468,128.9972873,0.00,27.51,100035816040C03910100000000010157,26.1,busan-road-polygon:175432,,14.6,RDQ006,194.3,crosswalk:2282,주감여중,false,296.4,barrier_free_facility:11945,주례1동온골경로당,복지·돌봄,false,STC-2210,1,P4,0,LOW_PRIORITY,도로 polygon 20m 초과,RESIDENTIAL_MANUAL_REVIEW,EXCLUDE_PRIVATE_RESIDENTIAL,HIGH,name_has_private_internal_keyword:아파트,"https://map.kakao.com/link/map/35.1560468,128.9972873","https://map.kakao.com/link/roadview/35.1560468,128.9972873"
stairs:2105,사상구,모라주공4단지아파트,35.1839657,129.0027957,0.00,3.77,100035913021C03910100000000008921,26.8,busan-road-polygon:181624,,5.5,RDQ006,128.6,crosswalk:2239,모동초교,false,182.9,barrier_free_facility:11533,모라3동 우체국,행정·공공기관,false,STC-1892,1,P4,0,LOW_PRIORITY,도로 polygon 20m 초과,RESIDENTIAL_MANUAL_REVIEW,EXCLUDE_PRIVATE_RESIDENTIAL,HIGH,name_has_private_internal_keyword:아파트|주공,"https://map.kakao.com/link/map/35.1839657,129.0027957","https://map.kakao.com/link/roadview/35.1839657,129.0027957"
stairs:2545,사상구,학장벽산아파트,35.1400064,128.9887451,0.00,2.27,100035816050C03910100000000040424,26.8,busan-road-polygon:180706,,15.6,RDQ006,127.3,crosswalk:2318,학장벽산아파트,false,55.1,public_toilet:1792,학장동우체국,화장실,false,STC-2283,2,P4,0,LOW_PRIORITY,"도로 polygon 20m 초과, 15m 이내 계단 클러스터",RESIDENTIAL_MANUAL_REVIEW,EXCLUDE_PRIVATE_RESIDENTIAL,HIGH,name_has_private_internal_keyword:아파트,"https://map.kakao.com/link/map/35.1400064,128.9887451","https://map.kakao.com/link/roadview/35.1400064,128.9887451"
stairs:2610,사상구,엄궁코오롱하늘채아파트,35.1277445,128.9790096,0.00,6.54,100035816050C03910100000000040495,27.3,busan-road-polygon:179189,,7.0,RDQ006,332.5,crosswalk:2249,엄궁제일유치원 주변,false,558.0,barrier_free_facility:12149,백산빌딩,음식·카페,false,STC-2343,1,P4,0,LOW_PRIORITY,도로 polygon 20m 초과,RESIDENTIAL_MANUAL_REVIEW,EXCLUDE_PRIVATE_RESIDENTIAL,HIGH,name_has_private_internal_keyword:아파트,"https://map.kakao.com/link/map/35.1277445,128.9790096","https://map.kakao.com/link/roadview/35.1277445,128.9790096"
stairs:2481,사상구,학장대림아파트,35.1354761,128.9924902,0.00,13.80,100035816050C03910100000000040343,27.4,busan-road-polygon:181327,,11.0,RDQ006,230.2,crosswalk:2158,구학초등학교,false,323.6,barrier_free_facility:12089,구립목욕탕,복지·돌봄,false,STC-2231,1,P4,0,LOW_PRIORITY,도로 polygon 20m 초과,RESIDENTIAL_MANUAL_REVIEW,EXCLUDE_PRIVATE_RESIDENTIAL,HIGH,name_has_private_internal_keyword:아파트,"https://map.kakao.com/link/map/35.1354761,128.9924902","https://map.kakao.com/link/roadview/35.1354761,128.9924902"
stairs:2165,사상구,모라1단지주공아파트,35.1843799,128.9984993,0.00,10.41,100035816030C03910100000000009741,27.6,busan-road-polygon:169554,,15.5,RDQ006,228.5,crosswalk:2238,모산초교,false,105.8,charging_station:109,백양종합사회복지관,전동보장구 충전소,false,STC-1950,1,P4,0,LOW_PRIORITY,도로 polygon 20m 초과,RESIDENTIAL_MANUAL_REVIEW,EXCLUDE_PRIVATE_RESIDENTIAL,HIGH,name_has_private_internal_keyword:아파트|주공,"https://map.kakao.com/link/map/35.1843799,128.9984993","https://map.kakao.com/link/roadview/35.1843799,128.9984993"
stairs:2311,사상구,벽산신화아파트,35.1543361,128.9958134,0.00,18.71,100035816040C03910100000000009896,27.6,busan-road-polygon:175788,,30.0,RDQ006,96.8,crosswalk:2244,신화빌라,false,141.2,barrier_free_facility:11945,주례1동온골경로당,복지·돌봄,false,STC-2071,1,P4,0,LOW_PRIORITY,도로 polygon 20m 초과,RESIDENTIAL_MANUAL_REVIEW,EXCLUDE_PRIVATE_RESIDENTIAL,HIGH,name_has_private_internal_keyword:아파트,"https://map.kakao.com/link/map/35.1543361,128.9958134","https://map.kakao.com/link/roadview/35.1543361,128.9958134"
stairs:2171,사상구,모라주공3단지아파트,35.1841699,129.0003166,0.00,4.24,100035913021C03910100000000009747,28.8,busan-road-polygon:169530,,14.8,RDQ006,130.4,crosswalk:2239,모동초교,false,98.4,barrier_free_facility:11532,사상구장애인복지관,복지·돌봄,false,STC-1954,3,P4,0,LOW_PRIORITY,"도로 polygon 20m 초과, 15m 이내 계단 클러스터",RESIDENTIAL_MANUAL_REVIEW,EXCLUDE_PRIVATE_RESIDENTIAL,HIGH,name_has_private_internal_keyword:아파트|주공,"https://map.kakao.com/link/map/35.1841699,129.0003166","https://map.kakao.com/link/roadview/35.1841699,129.0003166"
stairs:2172,사상구,모라주공3단지아파트,35.1842229,129.0004135,0.00,10.38,100035913021C03910100000000009748,28.8,busan-road-polygon:169530,,14.8,RDQ006,120.0,crosswalk:2239,모동초교,false,88.6,barrier_free_facility:11532,사상구장애인복지관,복지·돌봄,false,STC-1954,3,P4,0,LOW_PRIORITY,"도로 polygon 20m 초과, 15m 이내 계단 클러스터",RESIDENTIAL_MANUAL_REVIEW,EXCLUDE_PRIVATE_RESIDENTIAL,HIGH,name_has_private_internal_keyword:아파트|주공,"https://map.kakao.com/link/map/35.1842229,129.0004135","https://map.kakao.com/link/roadview/35.1842229,129.0004135"
stairs:2487,사상구,학장대림아파트,35.1354060,128.9922706,0.00,13.34,100035816050C03910100000000040349,29.0,busan-road-polygon:181327,,11.0,RDQ006,246.5,crosswalk:2158,구학초등학교,false,339.1,barrier_free_facility:12089,구립목욕탕,복지·돌봄,false,STC-2237,1,P4,0,LOW_PRIORITY,도로 polygon 20m 초과,RESIDENTIAL_MANUAL_REVIEW,EXCLUDE_PRIVATE_RESIDENTIAL,HIGH,name_has_private_internal_keyword:아파트,"https://map.kakao.com/link/map/35.1354060,128.9922706","https://map.kakao.com/link/roadview/35.1354060,128.9922706"
stairs:2571,사상구,학장동2차삼성아파트,35.1404212,128.9834157,0.00,14.84,100035816050C03910100000000040452,29.7,busan-road-polygon:180401,,17.0,RDQ006,46.0,crosswalk:2168,학장삼성아파트,false,94.6,barrier_free_facility:12105,학장큰솔병원,의료·보건,false,STC-2309,1,P4,0,LOW_PRIORITY,도로 polygon 20m 초과,RESIDENTIAL_MANUAL_REVIEW,EXCLUDE_PRIVATE_RESIDENTIAL,HIGH,name_has_private_internal_keyword:아파트,"https://map.kakao.com/link/map/35.1404212,128.9834157","https://map.kakao.com/link/roadview/35.1404212,128.9834157"
stairs:2170,사상구,모라주공3단지아파트,35.1841441,129.0002963,0.00,7.47,100035913021C03910100000000009746,29.8,busan-road-polygon:169530,,14.8,RDQ006,133.3,crosswalk:2239,모동초교,false,97.9,charging_station:109,백양종합사회복지관,전동보장구 충전소,false,STC-1954,3,P4,0,LOW_PRIORITY,"도로 polygon 20m 초과, 15m 이내 계단 클러스터",RESIDENTIAL_MANUAL_REVIEW,EXCLUDE_PRIVATE_RESIDENTIAL,HIGH,name_has_private_internal_keyword:아파트|주공,"https://map.kakao.com/link/map/35.1841441,129.0002963","https://map.kakao.com/link/roadview/35.1841441,129.0002963"
stairs:2155,사상구,우신모라아파트,35.1845003,128.9927524,0.00,3.90,100035816030C03910100000000009731,30.0,busan-road-polygon:169789,,4.7,RDQ006,147.7,crosswalk:2228,동백유치원,false,116.5,charging_station:111,모라3동 행정복지센터,전동보장구 충전소,false,STC-1940,1,P4,0,LOW_PRIORITY,도로 polygon 20m 초과,RESIDENTIAL_MANUAL_REVIEW,EXCLUDE_PRIVATE_RESIDENTIAL,HIGH,name_has_private_internal_keyword:아파트,"https://map.kakao.com/link/map/35.1845003,128.9927524","https://map.kakao.com/link/roadview/35.1845003,128.9927524"
stairs:2144,사상구,모라동원타운아파트,35.1836660,128.9890897,0.00,8.22,100035816030C03910100000000009720,30.6,busan-road-polygon:170777,,30.1,RDQ006,137.5,crosswalk:2323,자유아파트,false,139.4,charging_station:105,사상구청소년수련관,전동보장구 충전소,false,STC-1930,1,P4,0,LOW_PRIORITY,도로 polygon 20m 초과,RESIDENTIAL_MANUAL_REVIEW,EXCLUDE_PRIVATE_RESIDENTIAL,HIGH,name_has_private_internal_keyword:아파트,"https://map.kakao.com/link/map/35.1836660,128.9890897","https://map.kakao.com/link/roadview/35.1836660,128.9890897"
stairs:2310,사상구,벽산신화아파트,35.1544250,128.9956445,0.00,19.50,100035816040C03910100000000009895,30.9,busan-road-polygon:175788,,30.0,RDQ006,113.4,crosswalk:2244,신화빌라,false,158.9,barrier_free_facility:11945,주례1동온골경로당,복지·돌봄,false,STC-2070,1,P4,0,LOW_PRIORITY,도로 polygon 20m 초과,RESIDENTIAL_MANUAL_REVIEW,EXCLUDE_PRIVATE_RESIDENTIAL,HIGH,name_has_private_internal_keyword:아파트,"https://map.kakao.com/link/map/35.1544250,128.9956445","https://map.kakao.com/link/roadview/35.1544250,128.9956445"
stairs:2638,사상구,엄궁럭키아파트,35.1341942,128.9771748,0.00,1.45,100035816050C03910100000000040545,30.9,busan-road-polygon:179628,,0.5,RDQ005,255.6,crosswalk:2165,엄궁아파트(성황리마트앞),false,365.9,barrier_free_facility:12133,티에이치빌딩,음식·카페,false,STC-2371,1,P4,0,LOW_PRIORITY,도로 polygon 20m 초과,RESIDENTIAL_MANUAL_REVIEW,EXCLUDE_PRIVATE_RESIDENTIAL,HIGH,name_has_private_internal_keyword:아파트,"https://map.kakao.com/link/map/35.1341942,128.9771748","https://map.kakao.com/link/roadview/35.1341942,128.9771748"
stairs:2659,사상구,엄궁아파트,35.1304394,128.9738695,0.00,2.46,100035816049C03910100000000040567,31.0,busan-road-polygon:178380,,7.0,RDQ006,86.1,crosswalk:2232,엄궁초교후문앞,false,133.5,barrier_free_facility:12152,엄궁유일병원,의료·보건,false,STC-2388,1,P4,0,LOW_PRIORITY,도로 polygon 20m 초과,RESIDENTIAL_MANUAL_REVIEW,EXCLUDE_PRIVATE_RESIDENTIAL,HIGH,name_has_private_internal_keyword:아파트,"https://map.kakao.com/link/map/35.1304394,128.9738695","https://map.kakao.com/link/roadview/35.1304394,128.9738695"
stairs:2562,사상구,학장벽산아파트,35.1396192,128.9901879,0.00,1.28,100035816050C03910100000000040443,31.2,busan-road-polygon:180698,,40.0,RDQ006,205.6,crosswalk:2318,학장벽산아파트,false,70.8,public_toilet:1797,사상구선거관리위원회,화장실,false,STC-2301,1,P4,0,LOW_PRIORITY,도로 polygon 20m 초과,RESIDENTIAL_MANUAL_REVIEW,EXCLUDE_PRIVATE_RESIDENTIAL,HIGH,name_has_private_internal_keyword:아파트,"https://map.kakao.com/link/map/35.1396192,128.9901879","https://map.kakao.com/link/roadview/35.1396192,128.9901879"
stairs:2233,사상구,부원파크타운아파트,35.1791427,128.9902800,0.00,6.20,100035816030C03910100000000009810,32.9,busan-road-polygon:170189,,12.8,RDQ006,164.0,crosswalk:2326,북부노동청,false,73.5,barrier_free_facility:11612,이너피스병원,의료·보건,false,STC-2002,4,P4,0,LOW_PRIORITY,"도로 polygon 20m 초과, 15m 이내 계단 클러스터",RESIDENTIAL_MANUAL_REVIEW,EXCLUDE_PRIVATE_RESIDENTIAL,HIGH,name_has_private_internal_keyword:아파트,"https://map.kakao.com/link/map/35.1791427,128.9902800","https://map.kakao.com/link/roadview/35.1791427,128.9902800"
stairs:2227,사상구,자유아파트,35.1795876,128.9892966,0.00,2.30,100035816030C03910100000000009804,33.0,busan-road-polygon:170193,,12.3,RDQ006,112.5,crosswalk:2326,북부노동청,false,68.2,public_toilet:1798,부산북부고용노동지청,화장실,false,STC-1999,1,P4,0,LOW_PRIORITY,도로 polygon 20m 초과,RESIDENTIAL_MANUAL_REVIEW,EXCLUDE_PRIVATE_RESIDENTIAL,HIGH,name_has_private_internal_keyword:아파트,"https://map.kakao.com/link/map/35.1795876,128.9892966","https://map.kakao.com/link/roadview/35.1795876,128.9892966"
