key,targetType,targetId,districtGu,name,category,status,statusLabel,coordinateQuality,coordinateQualityReason,coordinateEvidenceSource,coordinateEvidenceDistanceM,note,lat,lng,fixedLat,fixedLng,fixedSource,fixedSourceUrl,kakaoUrlX,kakaoUrlY,sourceKey,placeId,ufid,sourceId,updatedAt,evidenceAction,evidencePrimarySource,kakaoStatus,kakaoPlaceName,kakaoDistanceM,poiStatus,poiName,poiDistanceM
facility:2281,facility,2281,,개금2동주민센터,TOILET,KEEP,유지,INTERNAL,건물/시설 내부 편의시설이라 지도 좌표만으로 접근 가능한 입구를 확정할 수 없음; POI 근거 개금2동주민센터 2.0m,POI,2.0,[지도/POI 1차판정] 공중화장실/시설 POI 근거리 확인 / [좌표품질:INTERNAL] 건물/시설 내부 편의시설이라 지도 좌표만으로 접근 가능한 입구를 확정할 수 없음; POI 근거 개금2동주민센터 2.0m / 카카오=개금2동주민센터(1.0m); POI=개금2동주민센터(2.0m),35.1448415,129.0194759,,,,,,,public_toilet:534,2281,,public_toilet:534,2026-04-27T16:09:24.750772+00:00,CATEGORY_REVIEW,KAKAO,KAKAO_STRONG,개금2동주민센터,1.0,MATCH_STRONG,개금2동주민센터,2.0
facility:2305,facility,2305,,전포2동주민센터,TOILET,KEEP,유지,INTERNAL,건물/시설 내부 편의시설이라 지도 좌표만으로 접근 가능한 입구를 확정할 수 없음; POI 근거 전포2동주민센터 1.5m,POI,1.5,[지도/POI 1차판정] 공중화장실/시설 POI 근거리 확인 / [좌표품질:INTERNAL] 건물/시설 내부 편의시설이라 지도 좌표만으로 접근 가능한 입구를 확정할 수 없음; POI 근거 전포2동주민센터 1.5m / 카카오=전포2동 주민센터(1.7m); POI=전포2동주민센터(1.5m),35.1616888,129.0662004,,,,,,,public_toilet:570,2305,,public_toilet:570,2026-04-27T16:09:24.750772+00:00,CATEGORY_REVIEW,KAKAO,KAKAO_STRONG,전포2동 주민센터,1.7,MATCH_STRONG,전포2동주민센터,1.5
facility:2501,facility,2501,,한국산업인력공단 부산지역본부,TOILET,KEEP,유지,INTERNAL,건물/시설 내부 편의시설이라 지도 좌표만으로 접근 가능한 입구를 확정할 수 없음; POI 근거 한국산업인력공단부산지역본부 51.3m,POI,51.3,[지도/POI 1차판정] 공중화장실/시설 POI 근거리 확인 / [좌표품질:INTERNAL] 건물/시설 내부 편의시설이라 지도 좌표만으로 접근 가능한 입구를 확정할 수 없음; POI 근거 한국산업인력공단부산지역본부 51.3m / 카카오=한국산업인력공단 부산지역본부(52.0m); POI=한국산업인력공단부산지역본부(51.3m),35.2492100,129.0109170,,,,,,,public_toilet:899,2501,,public_toilet:899,2026-04-27T16:09:24.750772+00:00,CATEGORY_REVIEW,KAKAO,KAKAO_STRONG,한국산업인력공단 부산지역본부,52.0,MATCH_STRONG,한국산업인력공단부산지역본부,51.3
facility:2990,facility,2990,강서구,가덕도동행정복지센터,TOILET,KEEP,유지,INTERNAL,건물/시설 내부 편의시설이라 지도 좌표만으로 접근 가능한 입구를 확정할 수 없음; POI 근거 가덕도동행정복지센터 4.8m,POI,4.8,[지도/POI 1차판정] 공중화장실/시설 POI 근거리 확인 / [좌표품질:INTERNAL] 건물/시설 내부 편의시설이라 지도 좌표만으로 접근 가능한 입구를 확정할 수 없음; POI 근거 가덕도동행정복지센터 4.8m / 카카오=가덕도동 행정복지센터(4.7m); POI=가덕도동행정복지센터(4.8m),35.0566596,128.8317344,,,,,,,public_toilet:1632,2990,,public_toilet:1632,2026-04-27T16:09:24.750772+00:00,CATEGORY_REVIEW,KAKAO,KAKAO_STRONG,가덕도동 행정복지센터,4.7,MATCH_STRONG,가덕도동행정복지센터,4.8
facility:2989,facility,2989,강서구,가덕도파출소,TOILET,KEEP,유지,INTERNAL,건물/시설 내부 편의시설이라 지도 좌표만으로 접근 가능한 입구를 확정할 수 없음; POI 근거 가덕도파출소 1.7m,POI,1.7,[지도/POI 1차판정] 공중화장실/시설 POI 근거리 확인 / [좌표품질:INTERNAL] 건물/시설 내부 편의시설이라 지도 좌표만으로 접근 가능한 입구를 확정할 수 없음; POI 근거 가덕도파출소 1.7m / 카카오=가덕도파출소(0.9m); POI=가덕도파출소(1.7m),35.0528800,128.8310000,,,,,,,public_toilet:1631,2989,,public_toilet:1631,2026-04-27T16:09:24.750772+00:00,CATEGORY_REVIEW,KAKAO,KAKAO_STRONG,가덕도파출소,0.9,MATCH_STRONG,가덕도파출소,1.7
facility:3015,facility,3015,강서구,가락동행정복지센터,TOILET,KEEP,유지,INTERNAL,건물/시설 내부 편의시설이라 지도 좌표만으로 접근 가능한 입구를 확정할 수 없음; POI 근거 가락동행정복지센터 6.6m,POI,6.6,[지도/POI 1차판정] 공중화장실/시설 POI 근거리 확인 / [좌표품질:INTERNAL] 건물/시설 내부 편의시설이라 지도 좌표만으로 접근 가능한 입구를 확정할 수 없음; POI 근거 가락동행정복지센터 6.6m / 카카오=가락동행정복지센터(9.6m); POI=가락동행정복지센터(6.6m),35.1964100,128.9017000,,,,,,,public_toilet:1670,3015,,public_toilet:1670,2026-04-27T16:09:24.750772+00:00,CATEGORY_REVIEW,KAKAO,KAKAO_STRONG,가락동행정복지센터,9.6,MATCH_STRONG,가락동행정복지센터,6.6
facility:2968,facility,2968,강서구,가락보건지소,TOILET,KEEP,유지,INTERNAL,건물/시설 내부 편의시설이라 지도 좌표만으로 접근 가능한 입구를 확정할 수 없음; POI 근거 가락보건지소 1.9m,POI,1.9,[지도/POI 1차판정] 공중화장실/시설 POI 근거리 확인 / [좌표품질:INTERNAL] 건물/시설 내부 편의시설이라 지도 좌표만으로 접근 가능한 입구를 확정할 수 없음; POI 근거 가락보건지소 1.9m / 카카오=가락보건지소(2.5m); POI=가락보건지소(1.9m),35.1962140,128.9016700,,,,,,,public_toilet:1600,2968,,public_toilet:1600,2026-04-27T16:09:24.750772+00:00,CATEGORY_REVIEW,KAKAO,KAKAO_STRONG,가락보건지소,2.5,MATCH_STRONG,가락보건지소,1.9
facility:2930,facility,2930,강서구,가락영업소,TOILET,KEEP,유지,INTERNAL,건물/시설 내부 편의시설이라 지도 좌표만으로 접근 가능한 입구를 확정할 수 없음; POI 근거 한국도로공사가락영업소 18.5m,POI,18.5,[지도/POI 1차판정] 공중화장실/시설 POI 근거리 확인 / [좌표품질:INTERNAL] 건물/시설 내부 편의시설이라 지도 좌표만으로 접근 가능한 입구를 확정할 수 없음; POI 근거 한국도로공사가락영업소 18.5m / 카카오=한국도로공사서비스 가락영업소(3.1m); POI=한국도로공사가락영업소(18.5m),35.1682140,128.8945440,,,,,,,public_toilet:1546,2930,,public_toilet:1546,2026-04-27T16:09:24.750772+00:00,CATEGORY_REVIEW,KAKAO,KAKAO_STRONG,한국도로공사서비스 가락영업소,3.1,MATCH_STRONG,한국도로공사가락영업소,18.5
facility:2983,facility,2983,강서구,가락파출소,TOILET,KEEP,유지,INTERNAL,건물/시설 내부 편의시설이라 지도 좌표만으로 접근 가능한 입구를 확정할 수 없음; POI 근거 가락파출소 5.4m,POI,5.4,[지도/POI 1차판정] 공중화장실/시설 POI 근거리 확인 / [좌표품질:INTERNAL] 건물/시설 내부 편의시설이라 지도 좌표만으로 접근 가능한 입구를 확정할 수 없음; POI 근거 가락파출소 5.4m / 카카오=가락파출소(5.0m); POI=가락파출소(5.4m),35.1949500,128.9021000,,,,,,,public_toilet:1623,2983,,public_toilet:1623,2026-04-27T16:09:24.750772+00:00,CATEGORY_REVIEW,KAKAO,KAKAO_STRONG,가락파출소,5.0,MATCH_STRONG,가락파출소,5.4
facility:3006,facility,3006,강서구,강동동행정복지센터,TOILET,KEEP,유지,INTERNAL,건물/시설 내부 편의시설이라 지도 좌표만으로 접근 가능한 입구를 확정할 수 없음; POI 근거 강동동행정복지센터 8.9m,POI,8.9,[지도/POI 1차판정] 공중화장실/시설 POI 근거리 확인 / [좌표품질:INTERNAL] 건물/시설 내부 편의시설이라 지도 좌표만으로 접근 가능한 입구를 확정할 수 없음; POI 근거 강동동행정복지센터 8.9m / 카카오=강동동행정복지센터(12.8m); POI=강동동행정복지센터(8.9m),35.2146300,128.9353000,,,,,,,public_toilet:1659,3006,,public_toilet:1659,2026-04-27T16:09:24.750772+00:00,CATEGORY_REVIEW,KAKAO,KAKAO_STRONG,강동동행정복지센터,12.8,MATCH_STRONG,강동동행정복지센터,8.9
facility:2984,facility,2984,강서구,강동보건지소,TOILET,KEEP,유지,INTERNAL,건물/시설 내부 편의시설이라 지도 좌표만으로 접근 가능한 입구를 확정할 수 없음; POI 근거 강동보건지소입구 22.1m,POI,22.1,"[지도/POI 1차판정] 공중화장실/시설 POI 근거리 확인 / [좌표품질:INTERNAL] 건물/시설 내부 편의시설이라 지도 좌표만으로 접근 가능한 입구를 확정할 수 없음; POI 근거 강동보건지소입구 22.1m / 카카오=무더위,한파쉼터 강동보건지소(23.7m); POI=강동보건지소입구(22.1m)",35.2163500,128.9375000,,,,,,,public_toilet:1624,2984,,public_toilet:1624,2026-04-27T16:09:24.750772+00:00,CATEGORY_REVIEW,KAKAO,KAKAO_STRONG,"무더위,한파쉼터 강동보건지소",23.7,MATCH_STRONG,강동보건지소입구,22.1
facility:2964,facility,2964,강서구,강동파출소,TOILET,KEEP,유지,INTERNAL,건물/시설 내부 편의시설이라 지도 좌표만으로 접근 가능한 입구를 확정할 수 없음; POI 근거 강동파출소 4.8m,POI,4.8,[지도/POI 1차판정] 공중화장실/시설 POI 근거리 확인 / [좌표품질:INTERNAL] 건물/시설 내부 편의시설이라 지도 좌표만으로 접근 가능한 입구를 확정할 수 없음; POI 근거 강동파출소 4.8m / 카카오=강동파출소(10.2m); POI=강동파출소(4.8m),35.2162300,128.9367000,,,,,,,public_toilet:1594,2964,,public_toilet:1594,2026-04-27T16:09:24.750772+00:00,CATEGORY_REVIEW,KAKAO,KAKAO_STRONG,강동파출소,10.2,MATCH_STRONG,강동파출소,4.8
facility:2911,facility,2911,강서구,강서구보훈복지회관,TOILET,KEEP,유지,INTERNAL,건물/시설 내부 편의시설이라 지도 좌표만으로 접근 가능한 입구를 확정할 수 없음; POI 근거 공중화장실 26.4m,POI,26.4,[지도/POI 1차판정] 공중화장실/시설 POI 근거리 확인 / [좌표품질:INTERNAL] 건물/시설 내부 편의시설이라 지도 좌표만으로 접근 가능한 입구를 확정할 수 없음; POI 근거 공중화장실 26.4m / 카카오=강서구보훈복지회관(26.3m); POI=공중화장실(26.4m),35.2144600,128.9352000,,,,,,,public_toilet:1520,2911,,public_toilet:1520,2026-04-27T16:09:24.750772+00:00,CATEGORY_REVIEW,KAKAO,KAKAO_STRONG,강서구보훈복지회관,26.3,MATCH_STRONG,공중화장실,26.4
facility:3012,facility,3012,강서구,강서구여성센터,TOILET,KEEP,유지,INTERNAL,건물/시설 내부 편의시설이라 지도 좌표만으로 접근 가능한 입구를 확정할 수 없음; POI 근거 부산강서새일센터 24.0m,POI,24.0,[지도/POI 1차판정] 공중화장실/시설 POI 근거리 확인 / [좌표품질:INTERNAL] 건물/시설 내부 편의시설이라 지도 좌표만으로 접근 가능한 입구를 확정할 수 없음; POI 근거 부산강서새일센터 24.0m / 카카오=강서구여성센터(42.1m); POI=부산강서새일센터(24.0m),35.2125400,128.9807000,,,,,,,public_toilet:1667,3012,,public_toilet:1667,2026-04-27T16:09:24.750772+00:00,CATEGORY_REVIEW,KAKAO,KAKAO_STRONG,강서구여성센터,42.1,MATCH_STRONG,부산강서새일센터,24.0
facility:2912,facility,2912,강서구,강서구청,TOILET,KEEP,유지,INTERNAL,건물/시설 내부 편의시설이라 지도 좌표만으로 접근 가능한 입구를 확정할 수 없음; POI 근거 강서구청 37.2m,POI,37.2,[지도/POI 1차판정] 공중화장실/시설 POI 근거리 확인 / [좌표품질:INTERNAL] 건물/시설 내부 편의시설이라 지도 좌표만으로 접근 가능한 입구를 확정할 수 없음; POI 근거 강서구청 37.2m / 카카오=강서구청 주차장(9.9m); POI=강서구청(37.2m),35.2125300,128.9806000,,,,,,,public_toilet:1521,2912,,public_toilet:1521,2026-04-27T16:09:24.750772+00:00,CATEGORY_REVIEW,KAKAO,KAKAO_STRONG,강서구청 주차장,9.9,MATCH_STRONG,강서구청,37.2
facility:2953,facility,2953,강서구,강서구청 별관 문화원,TOILET,KEEP,유지,INTERNAL,건물/시설 내부 편의시설이라 지도 좌표만으로 접근 가능한 입구를 확정할 수 없음; POI 근거 강서문화원 31.0m,POI,31.0,[지도/POI 1차판정] 카카오 지도 근거 확인 / [좌표품질:INTERNAL] 건물/시설 내부 편의시설이라 지도 좌표만으로 접근 가능한 입구를 확정할 수 없음; POI 근거 강서문화원 31.0m / 카카오=강서구청 주차장(1.3m); POI=강서문화원(31.0m),35.2124900,128.9807000,,,,,,,public_toilet:1575,2953,,public_toilet:1575,2026-04-27T16:09:24.750772+00:00,RENAME_REVIEW,KAKAO,KAKAO_STRONG,강서구청 주차장,1.3,MATCH_STRONG,강서문화원,31.0
facility:2956,facility,2956,강서구,강서기적의도서관,TOILET,KEEP,유지,INTERNAL,건물/시설 내부 편의시설이라 지도 좌표만으로 접근 가능한 입구를 확정할 수 없음; KAKAO 근거 명지동근린공원 개방화장실 82.1m,KAKAO,82.1,[지도/POI 1차판정] 카카오 지도 근거 확인 / [좌표품질:INTERNAL] 건물/시설 내부 편의시설이라 지도 좌표만으로 접근 가능한 입구를 확정할 수 없음; KAKAO 근거 명지동근린공원 개방화장실 82.1m / 카카오=명지동근린공원 개방화장실(82.1m); POI=강서기적의도서관(240.0m),35.0877400,128.9066000,,,,,,,public_toilet:1583,2956,,public_toilet:1583,2026-04-27T16:09:24.750772+00:00,RENAME_REVIEW,KAKAO,KAKAO_MEDIUM,명지동근린공원 개방화장실,82.1,MATCH_WEAK,강서기적의도서관,240.0
facility:3009,facility,3009,강서구,강서노인종합복지관 화장실,TOILET,KEEP,유지,INTERNAL,건물/시설 내부 편의시설이라 지도 좌표만으로 접근 가능한 입구를 확정할 수 없음; POI 근거 공중화장실 19.7m,POI,19.7,[지도/POI 1차판정] 카카오 지도 근거 확인 / [좌표품질:INTERNAL] 건물/시설 내부 편의시설이라 지도 좌표만으로 접근 가능한 입구를 확정할 수 없음; POI 근거 공중화장실 19.7m / 카카오=사회복지법인로사리오카리타스 강서노인종합복지관(16.5m); POI=공중화장실(19.7m),35.2072780,128.9732970,,,,,,,public_toilet:1663,3009,,public_toilet:1663,2026-04-27T16:09:24.750772+00:00,RENAME_REVIEW,KAKAO,KAKAO_MEDIUM,사회복지법인로사리오카리타스 강서노인종합복지관,16.5,MATCH_STRONG,공중화장실,19.7
facility:2929,facility,2929,강서구,강서브라이트센터,TOILET,KEEP,유지,INTERNAL,건물/시설 내부 편의시설이라 지도 좌표만으로 접근 가능한 입구를 확정할 수 없음; POI 근거 강서브라이트센터 26.9m,POI,26.9,[지도/POI 1차판정] 공중화장실/시설 POI 근거리 확인 / [좌표품질:INTERNAL] 건물/시설 내부 편의시설이라 지도 좌표만으로 접근 가능한 입구를 확정할 수 없음; POI 근거 강서브라이트센터 26.9m / 카카오=강서브라이트센터(46.5m); POI=강서브라이트센터(26.9m),35.1804100,128.9572000,,,,,,,public_toilet:1542,2929,,public_toilet:1542,2026-04-27T16:09:24.750772+00:00,CATEGORY_REVIEW,KAKAO,KAKAO_STRONG,강서브라이트센터,46.5,MATCH_STRONG,강서브라이트센터,26.9
facility:3014,facility,3014,강서구,강서체육공원 보조경기장1층,TOILET,KEEP,유지,INTERNAL,건물/시설 내부 편의시설이라 지도 좌표만으로 접근 가능한 입구를 확정할 수 없음; POI 근거 강서체육공원 25.9m,POI,25.9,[지도/POI 1차판정] 카카오 지도 근거 확인 / [좌표품질:INTERNAL] 건물/시설 내부 편의시설이라 지도 좌표만으로 접근 가능한 입구를 확정할 수 없음; POI 근거 강서체육공원 25.9m / 카카오=강서체육공원 보조체육관(20.9m); POI=강서체육공원(25.9m),35.2107911,128.9724093,,,,,,,public_toilet:1669,3014,,public_toilet:1669,2026-04-27T16:09:24.750772+00:00,RENAME_REVIEW,KAKAO,KAKAO_STRONG,강서체육공원 보조체육관,20.9,MATCH_STRONG,강서체육공원,25.9
facility:2950,facility,2950,강서구,강서체육공원 보조경기장2층,TOILET,KEEP,유지,INTERNAL,건물/시설 내부 편의시설이라 지도 좌표만으로 접근 가능한 입구를 확정할 수 없음; POI 근거 강서체육공원 25.9m,POI,25.9,[지도/POI 1차판정] 카카오 지도 근거 확인 / [좌표품질:INTERNAL] 건물/시설 내부 편의시설이라 지도 좌표만으로 접근 가능한 입구를 확정할 수 없음; POI 근거 강서체육공원 25.9m / 카카오=강서체육공원 보조체육관(20.9m); POI=강서체육공원(25.9m),35.2107911,128.9724093,,,,,,,public_toilet:1571,2950,,public_toilet:1571,2026-04-27T16:09:24.750772+00:00,RENAME_REVIEW,KAKAO,KAKAO_STRONG,강서체육공원 보조체육관,20.9,MATCH_STRONG,강서체육공원,25.9
facility:2961,facility,2961,강서구,강서체육공원 야외화장실,TOILET,KEEP,유지,INTERNAL,건물/시설 내부 편의시설이라 지도 좌표만으로 접근 가능한 입구를 확정할 수 없음; POI 근거 강서체육공원실내체육관 32.9m,POI,32.9,[지도/POI 1차판정] 카카오 지도 근거 확인 / [좌표품질:INTERNAL] 건물/시설 내부 편의시설이라 지도 좌표만으로 접근 가능한 입구를 확정할 수 없음; POI 근거 강서체육공원실내체육관 32.9m / 카카오=부산강서실내체육관(29.1m); POI=강서체육공원실내체육관(32.9m),35.2098838,128.9723414,,,,,,,public_toilet:1589,2961,,public_toilet:1589,2026-04-27T16:09:24.750772+00:00,RENAME_REVIEW,KAKAO,KAKAO_MEDIUM,부산강서실내체육관,29.1,MATCH_MEDIUM,강서체육공원실내체육관,32.9
facility:2995,facility,2995,강서구,강서체육공원야외화장실양궁장,TOILET,KEEP,유지,INTERNAL,건물/시설 내부 편의시설이라 지도 좌표만으로 접근 가능한 입구를 확정할 수 없음; POI 근거 공중화장실 162.8m,POI,162.8,[지도/POI 1차판정] 카카오 지도에서 상위 시설/공원 근거리 확인 / [좌표품질:INTERNAL] 건물/시설 내부 편의시설이라 지도 좌표만으로 접근 가능한 입구를 확정할 수 없음; POI 근거 공중화장실 162.8m / 카카오=강서체육공원(66.2m); POI=공중화장실(162.8m),35.2098658,128.9710414,,,,,,,public_toilet:1639,2995,,public_toilet:1639,2026-04-27T16:09:24.750772+00:00,MANUAL_REVIEW,POI,KAKAO_WEAK,강서체육공원,66.2,MATCH_WEAK,공중화장실,162.8
facility:2913,facility,2913,강서구,강서체육공원야외화장실테니스장,TOILET,KEEP,유지,INTERNAL,건물/시설 내부 편의시설이라 지도 좌표만으로 접근 가능한 입구를 확정할 수 없음; POI 근거 공중화장실 288.5m,POI,288.5,[지도/POI 1차판정] 카카오 지도 근거 확인 / [좌표품질:INTERNAL] 건물/시설 내부 편의시설이라 지도 좌표만으로 접근 가능한 입구를 확정할 수 없음; POI 근거 공중화장실 288.5m / 카카오=강서체육공원 축구장(43.4m); POI=공중화장실(288.5m),35.2089002,128.9703030,,,,,,,public_toilet:1522,2913,,public_toilet:1522,2026-04-27T16:09:24.750772+00:00,RENAME_REVIEW,KAKAO,KAKAO_MEDIUM,강서체육공원 축구장,43.4,MATCH_WEAK,공중화장실,288.5
facility:2970,facility,2970,강서구,공항파출소,TOILET,KEEP,유지,INTERNAL,건물/시설 내부 편의시설이라 지도 좌표만으로 접근 가능한 입구를 확정할 수 없음; POI 근거 공항파출소 16.0m,POI,16.0,[지도/POI 1차판정] 공중화장실/시설 POI 근거리 확인 / [좌표품질:INTERNAL] 건물/시설 내부 편의시설이라 지도 좌표만으로 접근 가능한 입구를 확정할 수 없음; POI 근거 공항파출소 16.0m / 카카오=공항파출소(8.5m); POI=공항파출소(16.0m),35.1811600,128.9542000,,,,,,,public_toilet:1602,2970,,public_toilet:1602,2026-04-27T16:09:24.750772+00:00,CATEGORY_REVIEW,KAKAO,KAKAO_STRONG,공항파출소,8.5,MATCH_STRONG,공항파출소,16.0
facility:2980,facility,2980,강서구,구랑천 체육시설,TOILET,KEEP,유지,INTERNAL,건물/시설 내부 편의시설이라 지도 좌표만으로 접근 가능한 입구를 확정할 수 없음; POI 근거 공중화장실 6.7m,POI,6.7,[지도/POI 1차판정] 공중화장실/시설 POI 근거리 확인 / [좌표품질:INTERNAL] 건물/시설 내부 편의시설이라 지도 좌표만으로 접근 가능한 입구를 확정할 수 없음; POI 근거 공중화장실 6.7m / POI=공중화장실(6.7m),35.1340900,128.8607000,,,,,,,public_toilet:1618,2980,,public_toilet:1618,2026-04-27T16:09:24.750772+00:00,POI_ONLY_RECHECK,POI,KAKAO_NO_RESULT,,,MATCH_STRONG,공중화장실,6.7
facility:2988,facility,2988,강서구,국회부산도서관 화장실,TOILET,KEEP,유지,INTERNAL,건물/시설 내부 편의시설이라 지도 좌표만으로 접근 가능한 입구를 확정할 수 없음; POI 근거 공중화장실 1.9m,POI,1.9,[지도/POI 1차판정] 카카오 지도 근거 확인 / [좌표품질:INTERNAL] 건물/시설 내부 편의시설이라 지도 좌표만으로 접근 가능한 입구를 확정할 수 없음; POI 근거 공중화장실 1.9m / 카카오=국회부산도서관(7.6m); POI=공중화장실(1.9m),35.1035300,128.9044000,,,,,,,public_toilet:1630,2988,,public_toilet:1630,2026-04-27T16:09:24.750772+00:00,RENAME_REVIEW,KAKAO,KAKAO_MEDIUM,국회부산도서관,7.6,MATCH_STRONG,공중화장실,1.9
facility:2985,facility,2985,강서구,낙동강관리본부 맥도생태공원 2,TOILET,KEEP,유지,INTERNAL,건물/시설 내부 편의시설이라 지도 좌표만으로 접근 가능한 입구를 확정할 수 없음; POI 근거 공중화장실 52.2m,POI,52.2,[지도/POI 1차판정] 공중화장실/시설 POI 근거리 확인 / [좌표품질:INTERNAL] 건물/시설 내부 편의시설이라 지도 좌표만으로 접근 가능한 입구를 확정할 수 없음; POI 근거 공중화장실 52.2m / POI=공중화장실(52.2m),35.1511200,128.9545630,,,,,,,public_toilet:1626,2985,,public_toilet:1626,2026-04-27T16:09:24.750772+00:00,POI_ONLY_RECHECK,POI,KAKAO_NO_RESULT,,,MATCH_MEDIUM,공중화장실,52.2
facility:2887,facility,2887,강서구,낙동강관리본부 맥도생태공원 4,TOILET,KEEP,유지,INTERNAL,건물/시설 내부 편의시설이라 지도 좌표만으로 접근 가능한 입구를 확정할 수 없음; POI 근거 공중화장실 56.1m,POI,56.1,[지도/POI 1차판정] 공중화장실/시설 POI 근거리 확인 / [좌표품질:INTERNAL] 건물/시설 내부 편의시설이라 지도 좌표만으로 접근 가능한 입구를 확정할 수 없음; POI 근거 공중화장실 56.1m / POI=공중화장실(56.1m),35.1499650,128.9548640,,,,,,,public_toilet:1478,2887,,public_toilet:1478,2026-04-27T16:09:24.750772+00:00,POI_ONLY_RECHECK,POI,KAKAO_NO_RESULT,,,MATCH_MEDIUM,공중화장실,56.1
facility:2916,facility,2916,강서구,낙동강관리본부 맥도생태공원 5,TOILET,KEEP,유지,INTERNAL,건물/시설 내부 편의시설이라 지도 좌표만으로 접근 가능한 입구를 확정할 수 없음; POI 근거 공중화장실 34.4m,POI,34.4,[지도/POI 1차판정] 공중화장실/시설 POI 근거리 확인 / [좌표품질:INTERNAL] 건물/시설 내부 편의시설이라 지도 좌표만으로 접근 가능한 입구를 확정할 수 없음; POI 근거 공중화장실 34.4m / POI=공중화장실(34.4m),35.1477290,128.9539410,,,,,,,public_toilet:1527,2916,,public_toilet:1527,2026-04-27T16:09:24.750772+00:00,POI_ONLY_RECHECK,POI,KAKAO_NO_RESULT,,,MATCH_MEDIUM,공중화장실,34.4
facility:2954,facility,2954,강서구,낙동강관리본부 맥도생태공원 6,TOILET,KEEP,유지,INTERNAL,건물/시설 내부 편의시설이라 지도 좌표만으로 접근 가능한 입구를 확정할 수 없음; POI 근거 공중화장실 141.9m,POI,141.9,[지도/POI 1차판정] 공중화장실/시설 POI 근거리 확인 / [좌표품질:INTERNAL] 건물/시설 내부 편의시설이라 지도 좌표만으로 접근 가능한 입구를 확정할 수 없음; POI 근거 공중화장실 141.9m / POI=공중화장실(141.9m),35.1121560,128.9337630,,,,,,,public_toilet:1577,2954,,public_toilet:1577,2026-04-27T16:09:24.750772+00:00,POI_ONLY_RECHECK,POI,KAKAO_NO_RESULT,,,MATCH_MEDIUM,공중화장실,141.9
facility:2936,facility,2936,강서구,낙동종합사회복지관,TOILET,KEEP,유지,INTERNAL,건물/시설 내부 편의시설이라 지도 좌표만으로 접근 가능한 입구를 확정할 수 없음; POI 근거 낙동종합사회복지관 5.4m,POI,5.4,[지도/POI 1차판정] 공중화장실/시설 POI 근거리 확인 / [좌표품질:INTERNAL] 건물/시설 내부 편의시설이라 지도 좌표만으로 접근 가능한 입구를 확정할 수 없음; POI 근거 낙동종합사회복지관 5.4m / 카카오=낙동종합사회복지관(11.8m); POI=낙동종합사회복지관(5.4m),35.1198400,128.9028000,,,,,,,public_toilet:1555,2936,,public_toilet:1555,2026-04-27T16:09:24.750772+00:00,CATEGORY_REVIEW,KAKAO,KAKAO_STRONG,낙동종합사회복지관,11.8,MATCH_STRONG,낙동종합사회복지관,5.4
facility:2933,facility,2933,강서구,녹산동행정복지센터,TOILET,KEEP,유지,INTERNAL,건물/시설 내부 편의시설이라 지도 좌표만으로 접근 가능한 입구를 확정할 수 없음; POI 근거 녹산동행정복지센터 16.1m,POI,16.1,[지도/POI 1차판정] 공중화장실/시설 POI 근거리 확인 / [좌표품질:INTERNAL] 건물/시설 내부 편의시설이라 지도 좌표만으로 접근 가능한 입구를 확정할 수 없음; POI 근거 녹산동행정복지센터 16.1m / 카카오=녹산동행정복지센터(19.7m); POI=녹산동행정복지센터(16.1m),35.1536800,128.8838000,,,,,,,public_toilet:1550,2933,,public_toilet:1550,2026-04-27T16:09:24.750772+00:00,CATEGORY_REVIEW,KAKAO,KAKAO_STRONG,녹산동행정복지센터,19.7,MATCH_STRONG,녹산동행정복지센터,16.1
facility:2925,facility,2925,강서구,녹산파출소,TOILET,KEEP,유지,INTERNAL,건물/시설 내부 편의시설이라 지도 좌표만으로 접근 가능한 입구를 확정할 수 없음; POI 근거 녹산파출소 9.3m,POI,9.3,[지도/POI 1차판정] 공중화장실/시설 POI 근거리 확인 / [좌표품질:INTERNAL] 건물/시설 내부 편의시설이라 지도 좌표만으로 접근 가능한 입구를 확정할 수 없음; POI 근거 녹산파출소 9.3m / 카카오=녹산파출소(8.4m); POI=녹산파출소(9.3m),35.1127400,128.8862000,,,,,,,public_toilet:1537,2925,,public_toilet:1537,2026-04-27T16:09:24.750772+00:00,CATEGORY_REVIEW,KAKAO,KAKAO_STRONG,녹산파출소,8.4,MATCH_STRONG,녹산파출소,9.3
facility:2885,facility,2885,강서구,농업인복지회관,TOILET,KEEP,유지,INTERNAL,건물/시설 내부 편의시설이라 지도 좌표만으로 접근 가능한 입구를 확정할 수 없음; POI 근거 강서구농업인복지회관 9.0m,POI,9.0,[지도/POI 1차판정] 공중화장실/시설 POI 근거리 확인 / [좌표품질:INTERNAL] 건물/시설 내부 편의시설이라 지도 좌표만으로 접근 가능한 입구를 확정할 수 없음; POI 근거 강서구농업인복지회관 9.0m / 카카오=강서구농업인복지회관(10.6m); POI=강서구농업인복지회관(9.0m),35.1888400,128.9045000,,,,,,,public_toilet:1476,2885,,public_toilet:1476,2026-04-27T16:09:24.750772+00:00,CATEGORY_REVIEW,KAKAO,KAKAO_STRONG,강서구농업인복지회관,10.6,MATCH_STRONG,강서구농업인복지회관,9.0
facility:2986,facility,2986,강서구,대저1동행정복지센터,TOILET,KEEP,유지,INTERNAL,건물/시설 내부 편의시설이라 지도 좌표만으로 접근 가능한 입구를 확정할 수 없음; POI 근거 대저1동행정복지센터 14.2m,POI,14.2,[지도/POI 1차판정] 공중화장실/시설 POI 근거리 확인 / [좌표품질:INTERNAL] 건물/시설 내부 편의시설이라 지도 좌표만으로 접근 가능한 입구를 확정할 수 없음; POI 근거 대저1동행정복지센터 14.2m / 카카오=대저1동 행정복지센터(15.3m); POI=대저1동행정복지센터(14.2m),35.2155900,128.9768000,,,,,,,public_toilet:1627,2986,,public_toilet:1627,2026-04-27T16:09:24.750772+00:00,CATEGORY_REVIEW,KAKAO,KAKAO_STRONG,대저1동 행정복지센터,15.3,MATCH_STRONG,대저1동행정복지센터,14.2
facility:3016,facility,3016,강서구,대저2동행정복지센터,TOILET,KEEP,유지,INTERNAL,건물/시설 내부 편의시설이라 지도 좌표만으로 접근 가능한 입구를 확정할 수 없음; POI 근거 대저2동행정복지센터 22.3m,POI,22.3,[지도/POI 1차판정] 공중화장실/시설 POI 근거리 확인 / [좌표품질:INTERNAL] 건물/시설 내부 편의시설이라 지도 좌표만으로 접근 가능한 입구를 확정할 수 없음; POI 근거 대저2동행정복지센터 22.3m / 카카오=대저2동행정복지센터(18.3m); POI=대저2동행정복지센터(22.3m),35.1787500,128.9565000,,,,,,,public_toilet:1671,3016,,public_toilet:1671,2026-04-27T16:09:24.750772+00:00,CATEGORY_REVIEW,KAKAO,KAKAO_STRONG,대저2동행정복지센터,18.3,MATCH_STRONG,대저2동행정복지센터,22.3
facility:2901,facility,2901,강서구,대저파출소,TOILET,KEEP,유지,INTERNAL,건물/시설 내부 편의시설이라 지도 좌표만으로 접근 가능한 입구를 확정할 수 없음; POI 근거 대저파출소 8.3m,POI,8.3,[지도/POI 1차판정] 공중화장실/시설 POI 근거리 확인 / [좌표품질:INTERNAL] 건물/시설 내부 편의시설이라 지도 좌표만으로 접근 가능한 입구를 확정할 수 없음; POI 근거 대저파출소 8.3m / 카카오=대저파출소(6.8m); POI=대저파출소(8.3m),35.2120900,128.9828000,,,,,,,public_toilet:1501,2901,,public_toilet:1501,2026-04-27T16:09:24.750772+00:00,CATEGORY_REVIEW,KAKAO,KAKAO_STRONG,대저파출소,6.8,MATCH_STRONG,대저파출소,8.3
facility:2971,facility,2971,강서구,대항노인회관,TOILET,KEEP,유지,INTERNAL,건물/시설 내부 편의시설이라 지도 좌표만으로 접근 가능한 입구를 확정할 수 없음; KAKAO 근거 대항선착장 개방화장실 2.8m,KAKAO,2.8,[지도/POI 1차판정] 카카오 지도 근거 확인 / [좌표품질:INTERNAL] 건물/시설 내부 편의시설이라 지도 좌표만으로 접근 가능한 입구를 확정할 수 없음; KAKAO 근거 대항선착장 개방화장실 2.8m / 카카오=대항선착장 개방화장실(2.8m); POI=공중화장실(1.7m),35.0125800,128.8277000,,,,,,,public_toilet:1603,2971,,public_toilet:1603,2026-04-27T16:09:24.750772+00:00,RENAME_REVIEW,KAKAO,KAKAO_STRONG,대항선착장 개방화장실,2.8,MATCH_STRONG,공중화장실,1.7
facility:2922,facility,2922,강서구,덕두시장,TOILET,KEEP,유지,INTERNAL,건물/시설 내부 편의시설이라 지도 좌표만으로 접근 가능한 입구를 확정할 수 없음; POI 근거 공중화장실 24.1m,POI,24.1,[지도/POI 1차판정] 공중화장실/시설 POI 근거리 확인 / [좌표품질:INTERNAL] 건물/시설 내부 편의시설이라 지도 좌표만으로 접근 가능한 입구를 확정할 수 없음; POI 근거 공중화장실 24.1m / 카카오=덕두시장(34.6m); POI=공중화장실(24.1m),35.1791300,128.9561000,,,,,,,public_toilet:1534,2922,,public_toilet:1534,2026-04-27T16:09:24.750772+00:00,CATEGORY_REVIEW,KAKAO,KAKAO_STRONG,덕두시장,34.6,MATCH_STRONG,공중화장실,24.1
facility:2947,facility,2947,강서구,명지1동행정복지센터,TOILET,KEEP,유지,INTERNAL,건물/시설 내부 편의시설이라 지도 좌표만으로 접근 가능한 입구를 확정할 수 없음; POI 근거 명지더웨스턴아파트/110동 40.7m,POI,40.7,[지도/POI 1차판정] 공중화장실/시설 POI 근거리 확인 / [좌표품질:INTERNAL] 건물/시설 내부 편의시설이라 지도 좌표만으로 접근 가능한 입구를 확정할 수 없음; POI 근거 명지더웨스턴아파트/110동 40.7m / 카카오=명지1동행정복지센터(689.3m); POI=명지더웨스턴아파트/110동(40.7m),35.0968107,128.9133770,,,,,,,public_toilet:1568,2947,,public_toilet:1568,2026-04-27T16:09:24.750772+00:00,POI_ONLY_RECHECK,POI,KAKAO_WEAK,명지1동행정복지센터,689.3,MATCH_MEDIUM,명지더웨스턴아파트/110동,40.7
facility:2965,facility,2965,강서구,명지2동행정복지센터,TOILET,KEEP,유지,INTERNAL,건물/시설 내부 편의시설이라 지도 좌표만으로 접근 가능한 입구를 확정할 수 없음; POI 근거 명지2동행정복지센터 19.3m,POI,19.3,[지도/POI 1차판정] 공중화장실/시설 POI 근거리 확인 / [좌표품질:INTERNAL] 건물/시설 내부 편의시설이라 지도 좌표만으로 접근 가능한 입구를 확정할 수 없음; POI 근거 명지2동행정복지센터 19.3m / 카카오=명지2동행정복지센터(19.3m); POI=명지2동행정복지센터(19.3m),35.0847000,128.9002000,,,,,,,public_toilet:1597,2965,,public_toilet:1597,2026-04-27T16:09:24.750772+00:00,CATEGORY_REVIEW,KAKAO,KAKAO_STRONG,명지2동행정복지센터,19.3,MATCH_STRONG,명지2동행정복지센터,19.3
facility:2972,facility,2972,강서구,명지공원2(관리사무실),TOILET,KEEP,유지,INTERNAL,건물/시설 내부 편의시설이라 지도 좌표만으로 접근 가능한 입구를 확정할 수 없음; KAKAO 근거 명지동근린공원 개방화장실 79.0m,KAKAO,79.0,[지도/POI 1차판정] 카카오 지도 근거 확인 / [좌표품질:INTERNAL] 건물/시설 내부 편의시설이라 지도 좌표만으로 접근 가능한 입구를 확정할 수 없음; KAKAO 근거 명지동근린공원 개방화장실 79.0m / 카카오=명지동근린공원 개방화장실(79.0m); POI=명지공원(26.6m),35.0877000,128.9067000,,,,,,,public_toilet:1606,2972,,public_toilet:1606,2026-04-27T16:09:24.750772+00:00,RENAME_REVIEW,KAKAO,KAKAO_STRONG,명지동근린공원 개방화장실,79.0,MATCH_STRONG,명지공원,26.6
facility:2894,facility,2894,강서구,명지노인종합복지관 화장실,TOILET,KEEP,유지,INTERNAL,건물/시설 내부 편의시설이라 지도 좌표만으로 접근 가능한 입구를 확정할 수 없음; POI 근거 공중화장실 60.9m,POI,60.9,[지도/POI 1차판정] 공중화장실/시설 POI 근거리 확인 / [좌표품질:INTERNAL] 건물/시설 내부 편의시설이라 지도 좌표만으로 접근 가능한 입구를 확정할 수 없음; POI 근거 공중화장실 60.9m / 카카오=명지노인종합복지관(57.3m); POI=공중화장실(60.9m),35.1102860,128.9236070,,,,,,,public_toilet:1493,2894,,public_toilet:1493,2026-04-27T16:09:24.750772+00:00,POI_ONLY_RECHECK,POI,KAKAO_WEAK,명지노인종합복지관,57.3,MATCH_MEDIUM,공중화장실,60.9
facility:2931,facility,2931,강서구,명지시장(시장번영회),TOILET,KEEP,유지,INTERNAL,건물/시설 내부 편의시설이라 지도 좌표만으로 접근 가능한 입구를 확정할 수 없음; KAKAO 근거 부산명지시장 주차장개방화장실 29.3m,KAKAO,29.3,[지도/POI 1차판정] 카카오 지도 근거 확인 / [좌표품질:INTERNAL] 건물/시설 내부 편의시설이라 지도 좌표만으로 접근 가능한 입구를 확정할 수 없음; KAKAO 근거 부산명지시장 주차장개방화장실 29.3m / 카카오=부산명지시장 주차장개방화장실(29.3m); POI=공중화장실(8.6m),35.1129300,128.9316000,,,,,,,public_toilet:1547,2931,,public_toilet:1547,2026-04-27T16:09:24.750772+00:00,KEEP,KAKAO,KAKAO_STRONG,부산명지시장 주차장개방화장실,29.3,MATCH_STRONG,공중화장실,8.6
facility:2917,facility,2917,강서구,명지지구대,TOILET,KEEP,유지,INTERNAL,건물/시설 내부 편의시설이라 지도 좌표만으로 접근 가능한 입구를 확정할 수 없음; POI 근거 명지지구대 9.5m,POI,9.5,[지도/POI 1차판정] 공중화장실/시설 POI 근거리 확인 / [좌표품질:INTERNAL] 건물/시설 내부 편의시설이라 지도 좌표만으로 접근 가능한 입구를 확정할 수 없음; POI 근거 명지지구대 9.5m / 카카오=명지지구대(9.5m); POI=명지지구대(9.5m),35.0938700,128.9087000,,,,,,,public_toilet:1528,2917,,public_toilet:1528,2026-04-27T16:09:24.750772+00:00,CATEGORY_REVIEW,KAKAO,KAKAO_STRONG,명지지구대,9.5,MATCH_STRONG,명지지구대,9.5
facility:2926,facility,2926,강서구,부산강서경찰서,TOILET,KEEP,유지,INTERNAL,건물/시설 내부 편의시설이라 지도 좌표만으로 접근 가능한 입구를 확정할 수 없음; POI 근거 부산강서경찰서 13.8m,POI,13.8,[지도/POI 1차판정] 공중화장실/시설 POI 근거리 확인 / [좌표품질:INTERNAL] 건물/시설 내부 편의시설이라 지도 좌표만으로 접근 가능한 입구를 확정할 수 없음; POI 근거 부산강서경찰서 13.8m / 카카오=부산강서경찰서(19.8m); POI=부산강서경찰서(13.8m),35.1166100,128.9064000,,,,,,,public_toilet:1538,2926,,public_toilet:1538,2026-04-27T16:09:24.750772+00:00,CATEGORY_REVIEW,KAKAO,KAKAO_STRONG,부산강서경찰서,19.8,MATCH_STRONG,부산강서경찰서,13.8
facility:2880,facility,2880,강서구,부산강서우체국 1층,TOILET,KEEP,유지,INTERNAL,건물/시설 내부 편의시설이라 지도 좌표만으로 접근 가능한 입구를 확정할 수 없음; POI 근거 부산강서우체국 52.7m,POI,52.7,[지도/POI 1차판정] 공중화장실/시설 POI 근거리 확인 / [좌표품질:INTERNAL] 건물/시설 내부 편의시설이라 지도 좌표만으로 접근 가능한 입구를 확정할 수 없음; POI 근거 부산강서우체국 52.7m / 카카오=부산강서우체국(50.5m); POI=부산강서우체국(52.7m),35.2175130,128.9587670,,,,,,,public_toilet:1465,2880,,public_toilet:1465,2026-04-27T16:09:24.750772+00:00,CATEGORY_REVIEW,KAKAO,KAKAO_STRONG,부산강서우체국,50.5,MATCH_STRONG,부산강서우체국,52.7
facility:2934,facility,2934,강서구,부산광역시농업기술센터 화장실,TOILET,KEEP,유지,INTERNAL,건물/시설 내부 편의시설이라 지도 좌표만으로 접근 가능한 입구를 확정할 수 없음; POI 근거 공중화장실 6.7m,POI,6.7,[지도/POI 1차판정] 카카오 지도 근거 확인 / [좌표품질:INTERNAL] 건물/시설 내부 편의시설이라 지도 좌표만으로 접근 가능한 입구를 확정할 수 없음; POI 근거 공중화장실 6.7m / 카카오=농업기술센터 농기앤카페(9.2m); POI=공중화장실(6.7m),35.2132759,128.9868233,,,,,,,public_toilet:1551,2934,,public_toilet:1551,2026-04-27T16:09:24.750772+00:00,RENAME_REVIEW,KAKAO,KAKAO_MEDIUM,농업기술센터 농기앤카페,9.2,MATCH_STRONG,공중화장실,6.7
facility:2999,facility,2999,강서구,부산대저2동우체국,TOILET,KEEP,유지,INTERNAL,건물/시설 내부 편의시설이라 지도 좌표만으로 접근 가능한 입구를 확정할 수 없음; POI 근거 부산대저2동우체국 4.7m,POI,4.7,[지도/POI 1차판정] 공중화장실/시설 POI 근거리 확인 / [좌표품질:INTERNAL] 건물/시설 내부 편의시설이라 지도 좌표만으로 접근 가능한 입구를 확정할 수 없음; POI 근거 부산대저2동우체국 4.7m / 카카오=부산대저2동우체국(2.1m); POI=부산대저2동우체국(4.7m),35.1802870,128.9561400,,,,,,,public_toilet:1649,2999,,public_toilet:1649,2026-04-27T16:09:24.750772+00:00,CATEGORY_REVIEW,KAKAO,KAKAO_STRONG,부산대저2동우체국,2.1,MATCH_STRONG,부산대저2동우체국,4.7
facility:2944,facility,2944,강서구,부산신호동우체국,TOILET,KEEP,유지,INTERNAL,건물/시설 내부 편의시설이라 지도 좌표만으로 접근 가능한 입구를 확정할 수 없음; POI 근거 부산신호동우체국 5.0m,POI,5.0,[지도/POI 1차판정] 공중화장실/시설 POI 근거리 확인 / [좌표품질:INTERNAL] 건물/시설 내부 편의시설이라 지도 좌표만으로 접근 가능한 입구를 확정할 수 없음; POI 근거 부산신호동우체국 5.0m / 카카오=부산신호동우체국(5.4m); POI=부산신호동우체국(5.0m),35.0852160,128.8791990,,,,,,,public_toilet:1564,2944,,public_toilet:1564,2026-04-27T16:09:24.750772+00:00,CATEGORY_REVIEW,KAKAO,KAKAO_STRONG,부산신호동우체국,5.4,MATCH_STRONG,부산신호동우체국,5.0
facility:2882,facility,2882,강서구,부산지방검찰청서부지청민원실,TOILET,KEEP,유지,INTERNAL,건물/시설 내부 편의시설이라 지도 좌표만으로 접근 가능한 입구를 확정할 수 없음; POI 근거 부산지방검찰청서부지청 39.8m,POI,39.8,[지도/POI 1차판정] 공중화장실/시설 POI 근거리 확인 / [좌표품질:INTERNAL] 건물/시설 내부 편의시설이라 지도 좌표만으로 접근 가능한 입구를 확정할 수 없음; POI 근거 부산지방검찰청서부지청 39.8m / 카카오=부산지방검찰청 서부지청(51.6m); POI=부산지방검찰청서부지청(39.8m),35.0978500,128.9085000,,,,,,,public_toilet:1469,2882,,public_toilet:1469,2026-04-27T16:09:24.750772+00:00,CATEGORY_REVIEW,KAKAO,KAKAO_STRONG,부산지방검찰청 서부지청,51.6,MATCH_STRONG,부산지방검찰청서부지청,39.8
facility:2900,facility,2900,강서구,부산지방기상청 1층,TOILET,KEEP,유지,INTERNAL,건물/시설 내부 편의시설이라 지도 좌표만으로 접근 가능한 입구를 확정할 수 없음; POI 근거 공중화장실 33.8m,POI,33.8,[지도/POI 1차판정] 공중화장실/시설 POI 근거리 확인 / [좌표품질:INTERNAL] 건물/시설 내부 편의시설이라 지도 좌표만으로 접근 가능한 입구를 확정할 수 없음; POI 근거 공중화장실 33.8m / 카카오=부산지방기상청(35.5m); POI=공중화장실(33.8m),35.2174600,128.9602000,,,,,,,public_toilet:1500,2900,,public_toilet:1500,2026-04-27T16:09:24.750772+00:00,CATEGORY_REVIEW,KAKAO,KAKAO_STRONG,부산지방기상청,35.5,MATCH_STRONG,공중화장실,33.8
facility:2957,facility,2957,강서구,부산지사동우체국,TOILET,KEEP,유지,INTERNAL,건물/시설 내부 편의시설이라 지도 좌표만으로 접근 가능한 입구를 확정할 수 없음; POI 근거 부산지사동우체국 0.6m,POI,0.6,[지도/POI 1차판정] 공중화장실/시설 POI 근거리 확인 / [좌표품질:INTERNAL] 건물/시설 내부 편의시설이라 지도 좌표만으로 접근 가능한 입구를 확정할 수 없음; POI 근거 부산지사동우체국 0.6m / 카카오=부산지사동우체국(3.1m); POI=부산지사동우체국(0.6m),35.1508720,128.8321910,,,,,,,public_toilet:1584,2957,,public_toilet:1584,2026-04-27T16:09:24.750772+00:00,CATEGORY_REVIEW,KAKAO,KAKAO_STRONG,부산지사동우체국,3.1,MATCH_STRONG,부산지사동우체국,0.6
facility:2959,facility,2959,강서구,"부산해양경찰서
명지파출소",TOILET,KEEP,유지,INTERNAL,건물/시설 내부 편의시설이라 지도 좌표만으로 접근 가능한 입구를 확정할 수 없음; POI 근거 부산해양경찰서명지파출소 21.1m,POI,21.1,[지도/POI 1차판정] 공중화장실/시설 POI 근거리 확인 / [좌표품질:INTERNAL] 건물/시설 내부 편의시설이라 지도 좌표만으로 접근 가능한 입구를 확정할 수 없음; POI 근거 부산해양경찰서명지파출소 21.1m / 카카오=명지파출소(20.2m); POI=부산해양경찰서명지파출소(21.1m),35.1064600,128.9313000,,,,,,,public_toilet:1587,2959,,public_toilet:1587,2026-04-27T16:09:24.750772+00:00,CATEGORY_REVIEW,KAKAO,KAKAO_STRONG,명지파출소,20.2,MATCH_STRONG,부산해양경찰서명지파출소,21.1
facility:2981,facility,2981,강서구,북부산영업소,TOILET,KEEP,유지,INTERNAL,건물/시설 내부 편의시설이라 지도 좌표만으로 접근 가능한 입구를 확정할 수 없음; POI 근거 남해선북부산영업소 4.8m,POI,4.8,[지도/POI 1차판정] 공중화장실/시설 POI 근거리 확인 / [좌표품질:INTERNAL] 건물/시설 내부 편의시설이라 지도 좌표만으로 접근 가능한 입구를 확정할 수 없음; POI 근거 남해선북부산영업소 4.8m / 카카오=한국도로공사서비스 북부산영업소(3.2m); POI=남해선북부산영업소(4.8m),35.2220290,128.9411030,,,,,,,public_toilet:1619,2981,,public_toilet:1619,2026-04-27T16:09:24.750772+00:00,CATEGORY_REVIEW,KAKAO,KAKAO_STRONG,한국도로공사서비스 북부산영업소,3.2,MATCH_STRONG,남해선북부산영업소,4.8
facility:2881,facility,2881,강서구,사덕시장,TOILET,KEEP,유지,INTERNAL,건물/시설 내부 편의시설이라 지도 좌표만으로 접근 가능한 입구를 확정할 수 없음; POI 근거 공중화장실 5.1m,POI,5.1,[지도/POI 1차판정] 공중화장실/시설 POI 근거리 확인 / [좌표품질:INTERNAL] 건물/시설 내부 편의시설이라 지도 좌표만으로 접근 가능한 입구를 확정할 수 없음; POI 근거 공중화장실 5.1m / 카카오=사덕시장(22.5m); POI=공중화장실(5.1m),35.2131300,128.9826000,,,,,,,public_toilet:1466,2881,,public_toilet:1466,2026-04-27T16:09:24.750772+00:00,CATEGORY_REVIEW,KAKAO,KAKAO_STRONG,사덕시장,22.5,MATCH_STRONG,공중화장실,5.1
facility:2899,facility,2899,강서구,상수도사업본부 강서사업소,TOILET,KEEP,유지,INTERNAL,건물/시설 내부 편의시설이라 지도 좌표만으로 접근 가능한 입구를 확정할 수 없음; POI 근거 공중화장실 2.2m,POI,2.2,[지도/POI 1차판정] 공중화장실/시설 POI 근거리 확인 / [좌표품질:INTERNAL] 건물/시설 내부 편의시설이라 지도 좌표만으로 접근 가능한 입구를 확정할 수 없음; POI 근거 공중화장실 2.2m / 카카오=부산광역시 상수도사업본부 강서사업소(43.8m); POI=공중화장실(2.2m),35.1709500,128.9586000,,,,,,,public_toilet:1498,2899,,public_toilet:1498,2026-04-27T16:09:24.750772+00:00,CATEGORY_REVIEW,KAKAO,KAKAO_MEDIUM,부산광역시 상수도사업본부 강서사업소,43.8,MATCH_STRONG,공중화장실,2.2
facility:2902,facility,2902,강서구,생교동마을회관앞,TOILET,KEEP,유지,INTERNAL,건물/시설 내부 편의시설이라 지도 좌표만으로 접근 가능한 입구를 확정할 수 없음; POI 근거 생교경로당 13.8m,POI,13.8,[지도/POI 1차판정] 공중화장실/시설 POI 근거리 확인 / [좌표품질:INTERNAL] 건물/시설 내부 편의시설이라 지도 좌표만으로 접근 가능한 입구를 확정할 수 없음; POI 근거 생교경로당 13.8m / POI=생교경로당(13.8m),35.0540000,128.8414000,,,,,,,public_toilet:1502,2902,,public_toilet:1502,2026-04-27T16:09:24.750772+00:00,POI_ONLY_CATEGORY_RECHECK,POI,KAKAO_NO_RESULT,,,MATCH_STRONG,생교경로당,13.8
facility:3005,facility,3005,강서구,서부산(순천)휴게소,TOILET,KEEP,유지,INTERNAL,건물/시설 내부 편의시설이라 지도 좌표만으로 접근 가능한 입구를 확정할 수 없음; POI 근거 서부산휴게소 25.2m,POI,25.2,[지도/POI 1차판정] 공중화장실/시설 POI 근거리 확인 / [좌표품질:INTERNAL] 건물/시설 내부 편의시설이라 지도 좌표만으로 접근 가능한 입구를 확정할 수 없음; POI 근거 서부산휴게소 25.2m / 카카오=CU E서부산휴게소순천점(42.2m); POI=서부산휴게소(25.2m),35.1570900,128.9486000,,,,,,,public_toilet:1657,3005,,public_toilet:1657,2026-04-27T16:09:24.750772+00:00,CATEGORY_REVIEW,KAKAO,KAKAO_STRONG,CU E서부산휴게소순천점,42.2,MATCH_STRONG,서부산휴게소,25.2
facility:2966,facility,2966,강서구,수산자원연구소 휴게동,TOILET,KEEP,유지,INTERNAL,건물/시설 내부 편의시설이라 지도 좌표만으로 접근 가능한 입구를 확정할 수 없음; POI 근거 부산광역시수산자원연구소 11.4m,POI,11.4,[지도/POI 1차판정] 공중화장실/시설 POI 근거리 확인 / [좌표품질:INTERNAL] 건물/시설 내부 편의시설이라 지도 좌표만으로 접근 가능한 입구를 확정할 수 없음; POI 근거 부산광역시수산자원연구소 11.4m / 카카오=부산광역시 수산자원연구소 휴게동(8.4m); POI=부산광역시수산자원연구소(11.4m),35.0880410,128.9089580,,,,,,,public_toilet:1598,2966,,public_toilet:1598,2026-04-27T16:09:24.750772+00:00,CATEGORY_REVIEW,KAKAO,KAKAO_MEDIUM,부산광역시 수산자원연구소 휴게동,8.4,MATCH_MEDIUM,부산광역시수산자원연구소,11.4
facility:2920,facility,2920,강서구,신호민원센터,TOILET,KEEP,유지,INTERNAL,건물/시설 내부 편의시설이라 지도 좌표만으로 접근 가능한 입구를 확정할 수 없음; POI 근거 녹산동신호민원센터 18.5m,POI,18.5,[지도/POI 1차판정] 공중화장실/시설 POI 근거리 확인 / [좌표품질:INTERNAL] 건물/시설 내부 편의시설이라 지도 좌표만으로 접근 가능한 입구를 확정할 수 없음; POI 근거 녹산동신호민원센터 18.5m / POI=녹산동신호민원센터(18.5m),35.0856200,128.8791000,,,,,,,public_toilet:1532,2920,,public_toilet:1532,2026-04-27T16:09:24.750772+00:00,POI_ONLY_CATEGORY_RECHECK,POI,KAKAO_NO_RESULT,,,MATCH_STRONG,녹산동신호민원센터,18.5
facility:2987,facility,2987,강서구,신호작은도서관,TOILET,KEEP,유지,INTERNAL,건물/시설 내부 편의시설이라 지도 좌표만으로 접근 가능한 입구를 확정할 수 없음; POI 근거 신호작은도서관(아이들꿈자람터) 59.4m,POI,59.4,[지도/POI 1차판정] 카카오 지도 근거 확인 / [좌표품질:INTERNAL] 건물/시설 내부 편의시설이라 지도 좌표만으로 접근 가능한 입구를 확정할 수 없음; POI 근거 신호작은도서관(아이들꿈자람터) 59.4m / 카카오=신호장난감도서관(57.5m); POI=신호작은도서관(아이들꿈자람터)(59.4m),35.0885100,128.8719000,,,,,,,public_toilet:1629,2987,,public_toilet:1629,2026-04-27T16:09:24.750772+00:00,RENAME_REVIEW,KAKAO,KAKAO_STRONG,신호장난감도서관,57.5,MATCH_STRONG,신호작은도서관(아이들꿈자람터),59.4
facility:2952,facility,2952,강서구,신호파출소,TOILET,KEEP,유지,INTERNAL,건물/시설 내부 편의시설이라 지도 좌표만으로 접근 가능한 입구를 확정할 수 없음; POI 근거 신호파출소 3.3m,POI,3.3,[지도/POI 1차판정] 공중화장실/시설 POI 근거리 확인 / [좌표품질:INTERNAL] 건물/시설 내부 편의시설이라 지도 좌표만으로 접근 가능한 입구를 확정할 수 없음; POI 근거 신호파출소 3.3m / 카카오=신호파출소(5.2m); POI=신호파출소(3.3m),35.0899300,128.8564000,,,,,,,public_toilet:1573,2952,,public_toilet:1573,2026-04-27T16:09:24.750772+00:00,CATEGORY_REVIEW,KAKAO,KAKAO_STRONG,신호파출소,5.2,MATCH_STRONG,신호파출소,3.3
facility:2888,facility,2888,강서구,지사도서관,TOILET,KEEP,유지,INTERNAL,건물/시설 내부 편의시설이라 지도 좌표만으로 접근 가능한 입구를 확정할 수 없음; POI 근거 지사도서관 89.4m,POI,89.4,[지도/POI 1차판정] 카카오 지도에서 상위 시설/공원 근거리 확인 / [좌표품질:INTERNAL] 건물/시설 내부 편의시설이라 지도 좌표만으로 접근 가능한 입구를 확정할 수 없음; POI 근거 지사도서관 89.4m / 카카오=지사도서관(97.6m); POI=지사도서관(89.4m),35.1517600,128.8312100,,,,,,,public_toilet:1480,2888,,public_toilet:1480,2026-04-27T16:09:24.750772+00:00,CATEGORY_REVIEW,KAKAO,KAKAO_STRONG,지사도서관,97.6,MATCH_MEDIUM,지사도서관,89.4
facility:2963,facility,2963,강서구,지사민원센터,TOILET,KEEP,유지,INTERNAL,건물/시설 내부 편의시설이라 지도 좌표만으로 접근 가능한 입구를 확정할 수 없음; POI 근거 지사공원(2호근린공원) 18.1m,POI,18.1,[지도/POI 1차판정] 공중화장실/시설 POI 근거리 확인 / [좌표품질:INTERNAL] 건물/시설 내부 편의시설이라 지도 좌표만으로 접근 가능한 입구를 확정할 수 없음; POI 근거 지사공원(2호근린공원) 18.1m / 카카오=녹산동행정복지센터 지사민원센터(94.8m); POI=지사공원(2호근린공원)(18.1m),35.1517700,128.8311000,,,,,,,public_toilet:1591,2963,,public_toilet:1591,2026-04-27T16:09:24.750772+00:00,CATEGORY_REVIEW,KAKAO,KAKAO_MEDIUM,녹산동행정복지센터 지사민원센터,94.8,MATCH_STRONG,지사공원(2호근린공원),18.1
facility:2907,facility,2907,강서구,지사파출소,TOILET,KEEP,유지,INTERNAL,건물/시설 내부 편의시설이라 지도 좌표만으로 접근 가능한 입구를 확정할 수 없음; POI 근거 지사파출소 3.3m,POI,3.3,[지도/POI 1차판정] 공중화장실/시설 POI 근거리 확인 / [좌표품질:INTERNAL] 건물/시설 내부 편의시설이라 지도 좌표만으로 접근 가능한 입구를 확정할 수 없음; POI 근거 지사파출소 3.3m / 카카오=지사파출소(3.7m); POI=지사파출소(3.3m),35.1511700,128.8322000,,,,,,,public_toilet:1515,2907,,public_toilet:1515,2026-04-27T16:09:24.750772+00:00,CATEGORY_REVIEW,KAKAO,KAKAO_STRONG,지사파출소,3.7,MATCH_STRONG,지사파출소,3.3
facility:3181,facility,3181,기장군,고촌어울림도서관,TOILET,KEEP,유지,INTERNAL,건물/시설 내부 편의시설이라 지도 좌표만으로 접근 가능한 입구를 확정할 수 없음; POI 근거 고촌어울림도서관 12.9m,POI,12.9,[지도/POI 1차판정] 공중화장실/시설 POI 근거리 확인 / [좌표품질:INTERNAL] 건물/시설 내부 편의시설이라 지도 좌표만으로 접근 가능한 입구를 확정할 수 없음; POI 근거 고촌어울림도서관 12.9m / 카카오=고촌어울림도서관(12.9m); POI=고촌어울림도서관(12.9m),35.2387590,129.1688350,,,,,,,public_toilet:1903,3181,,public_toilet:1903,2026-04-27T16:09:24.750772+00:00,CATEGORY_REVIEW,KAKAO,KAKAO_STRONG,고촌어울림도서관,12.9,MATCH_STRONG,고촌어울림도서관,12.9
facility:3197,facility,3197,기장군,공수체험장,TOILET,KEEP,유지,INTERNAL,건물/시설 내부 편의시설이라 지도 좌표만으로 접근 가능한 입구를 확정할 수 없음; KAKAO 근거 공수어촌마을공중화장실 11.4m,KAKAO,11.4,[지도/POI 1차판정] 카카오 지도 근거 확인 / [좌표품질:INTERNAL] 건물/시설 내부 편의시설이라 지도 좌표만으로 접근 가능한 입구를 확정할 수 없음; KAKAO 근거 공수어촌마을공중화장실 11.4m / 카카오=공수어촌마을공중화장실(11.4m); POI=공수체험마을안내소(11.2m),35.1837740,129.2118320,,,,,,,public_toilet:1920,3197,,public_toilet:1920,2026-04-27T16:09:24.750772+00:00,RENAME_REVIEW,KAKAO,KAKAO_MEDIUM,공수어촌마을공중화장실,11.4,MATCH_MEDIUM,공수체험마을안내소,11.2
facility:3195,facility,3195,기장군,국립부산과학관 경비동,TOILET,KEEP,유지,INTERNAL,건물/시설 내부 편의시설이라 지도 좌표만으로 접근 가능한 입구를 확정할 수 없음; POI 근거 국립부산과학관 33.6m,POI,33.6,[지도/POI 1차판정] 카카오 지도 근거 확인 / [좌표품질:INTERNAL] 건물/시설 내부 편의시설이라 지도 좌표만으로 접근 가능한 입구를 확정할 수 없음; POI 근거 국립부산과학관 33.6m / 카카오=국립부산과학관 새싹누리관(12.9m); POI=국립부산과학관(33.6m),35.2041666,129.2127850,,,,,,,public_toilet:1918,3195,,public_toilet:1918,2026-04-27T16:09:24.750772+00:00,RENAME_REVIEW,KAKAO,KAKAO_STRONG,국립부산과학관 새싹누리관,12.9,MATCH_STRONG,국립부산과학관,33.6
facility:3158,facility,3158,기장군,국립부산과학관 본관,TOILET,KEEP,유지,INTERNAL,건물/시설 내부 편의시설이라 지도 좌표만으로 접근 가능한 입구를 확정할 수 없음; POI 근거 국립부산과학관 33.6m,POI,33.6,[지도/POI 1차판정] 카카오 지도 근거 확인 / [좌표품질:INTERNAL] 건물/시설 내부 편의시설이라 지도 좌표만으로 접근 가능한 입구를 확정할 수 없음; POI 근거 국립부산과학관 33.6m / 카카오=국립부산과학관 새싹누리관(12.9m); POI=국립부산과학관(33.6m),35.2041666,129.2127850,,,,,,,public_toilet:1877,3158,,public_toilet:1877,2026-04-27T16:09:24.750772+00:00,RENAME_REVIEW,KAKAO,KAKAO_STRONG,국립부산과학관 새싹누리관,12.9,MATCH_STRONG,국립부산과학관,33.6
facility:3242,facility,3242,기장군,국립부산과학관 어린이과학관,TOILET,KEEP,유지,INTERNAL,건물/시설 내부 편의시설이라 지도 좌표만으로 접근 가능한 입구를 확정할 수 없음; POI 근거 국립부산과학관 33.6m,POI,33.6,[지도/POI 1차판정] 카카오 지도 근거 확인 / [좌표품질:INTERNAL] 건물/시설 내부 편의시설이라 지도 좌표만으로 접근 가능한 입구를 확정할 수 없음; POI 근거 국립부산과학관 33.6m / 카카오=국립부산과학관 새싹누리관(12.9m); POI=국립부산과학관(33.6m),35.2041666,129.2127850,,,,,,,public_toilet:1973,3242,,public_toilet:1973,2026-04-27T16:09:24.750772+00:00,RENAME_REVIEW,KAKAO,KAKAO_STRONG,국립부산과학관 새싹누리관,12.9,MATCH_STRONG,국립부산과학관,33.6
facility:3121,facility,3121,기장군,국립부산과학관 천체투영관,TOILET,KEEP,유지,INTERNAL,건물/시설 내부 편의시설이라 지도 좌표만으로 접근 가능한 입구를 확정할 수 없음; POI 근거 국립부산과학관 33.6m,POI,33.6,[지도/POI 1차판정] 공중화장실/시설 POI 근거리 확인 / [좌표품질:INTERNAL] 건물/시설 내부 편의시설이라 지도 좌표만으로 접근 가능한 입구를 확정할 수 없음; POI 근거 국립부산과학관 33.6m / 카카오=국립부산과학관 천체투영관(59.6m); POI=국립부산과학관(33.6m),35.2041666,129.2127850,,,,,,,public_toilet:1837,3121,,public_toilet:1837,2026-04-27T16:09:24.750772+00:00,CATEGORY_REVIEW,KAKAO,KAKAO_STRONG,국립부산과학관 천체투영관,59.6,MATCH_STRONG,국립부산과학관,33.6
facility:3231,facility,3231,기장군,국립부산과학관 캠프관 B동,TOILET,KEEP,유지,INTERNAL,건물/시설 내부 편의시설이라 지도 좌표만으로 접근 가능한 입구를 확정할 수 없음; POI 근거 국립부산과학관 33.6m,POI,33.6,[지도/POI 1차판정] 카카오 지도 근거 확인 / [좌표품질:INTERNAL] 건물/시설 내부 편의시설이라 지도 좌표만으로 접근 가능한 입구를 확정할 수 없음; POI 근거 국립부산과학관 33.6m / 카카오=국립부산과학관 새싹누리관(12.9m); POI=국립부산과학관(33.6m),35.2041666,129.2127850,,,,,,,public_toilet:1962,3231,,public_toilet:1962,2026-04-27T16:09:24.750772+00:00,RENAME_REVIEW,KAKAO,KAKAO_STRONG,국립부산과학관 새싹누리관,12.9,MATCH_STRONG,국립부산과학관,33.6
facility:3126,facility,3126,기장군,국민건강보험공단 기장지사 1층,TOILET,KEEP,유지,INTERNAL,건물/시설 내부 편의시설이라 지도 좌표만으로 접근 가능한 입구를 확정할 수 없음; POI 근거 국민건강보험공단기장지사 5.8m,POI,5.8,[지도/POI 1차판정] 공중화장실/시설 POI 근거리 확인 / [좌표품질:INTERNAL] 건물/시설 내부 편의시설이라 지도 좌표만으로 접근 가능한 입구를 확정할 수 없음; POI 근거 국민건강보험공단기장지사 5.8m / 카카오=국민건강보험공단 기장지사(7.3m); POI=국민건강보험공단기장지사(5.8m),35.2538000,129.2155630,,,,,,,public_toilet:1842,3126,,public_toilet:1842,2026-04-27T16:09:24.750772+00:00,CATEGORY_REVIEW,KAKAO,KAKAO_STRONG,국민건강보험공단 기장지사,7.3,MATCH_STRONG,국민건강보험공단기장지사,5.8
facility:1893,facility,1893,기장군,국민체육센터 및 종합운동장,TOILET,KEEP,유지,INTERNAL,건물/시설 내부 편의시설이라 지도 좌표만으로 접근 가능한 입구를 확정할 수 없음; POI 근거 공중화장실 0.0m,POI,0.0,[지도/POI 1차판정] 카카오 지도 근거 확인 / [좌표품질:INTERNAL] 건물/시설 내부 편의시설이라 지도 좌표만으로 접근 가능한 입구를 확정할 수 없음; POI 근거 공중화장실 0.0m / 카카오=기장현대차드림볼파크(0.2m); POI=공중화장실(0.0m),35.2973921,129.2416751,,,,,,,barrier_free_facility:12935,1893,,barrier_free_facility:12935,2026-04-27T16:09:24.750772+00:00,RENAME_REVIEW,KAKAO,KAKAO_MEDIUM,기장현대차드림볼파크,0.2,MATCH_MEDIUM,공중화장실,0.0
facility:3098,facility,3098,기장군,기룡농산물판매장,TOILET,KEEP,유지,INTERNAL,건물/시설 내부 편의시설이라 지도 좌표만으로 접근 가능한 입구를 확정할 수 없음; POI 근거 기룡마을농산물직판장 3.6m,POI,3.6,[지도/POI 1차판정] 카카오 지도 근거 확인 / [좌표품질:INTERNAL] 건물/시설 내부 편의시설이라 지도 좌표만으로 접근 가능한 입구를 확정할 수 없음; POI 근거 기룡마을농산물직판장 3.6m / 카카오=기룡마을농산물직판장(2.8m); POI=기룡마을농산물직판장(3.6m),35.3548540,129.2520290,,,,,,,public_toilet:1811,3098,,public_toilet:1811,2026-04-27T16:09:24.750772+00:00,RENAME_REVIEW,KAKAO,KAKAO_MEDIUM,기룡마을농산물직판장,2.8,MATCH_MEDIUM,기룡마을농산물직판장,3.6
facility:3264,facility,3264,기장군,기장구조대,TOILET,KEEP,유지,INTERNAL,건물/시설 내부 편의시설이라 지도 좌표만으로 접근 가능한 입구를 확정할 수 없음; POI 근거 기장구조대 10.0m,POI,10.0,[지도/POI 1차판정] 카카오 지도 근거 확인 / [좌표품질:INTERNAL] 건물/시설 내부 편의시설이라 지도 좌표만으로 접근 가능한 입구를 확정할 수 없음; POI 근거 기장구조대 10.0m / 카카오=기장119구조대(10.7m); POI=기장구조대(10.0m),35.3248510,129.2124330,,,,,,,public_toilet:2001,3264,,public_toilet:2001,2026-04-27T16:09:24.750772+00:00,RENAME_REVIEW,KAKAO,KAKAO_STRONG,기장119구조대,10.7,MATCH_STRONG,기장구조대,10.0
facility:3253,facility,3253,기장군,기장군국민체육센터,TOILET,KEEP,유지,INTERNAL,건물/시설 내부 편의시설이라 지도 좌표만으로 접근 가능한 입구를 확정할 수 없음; POI 근거 기장군국민체육센터 15.4m,POI,15.4,[지도/POI 1차판정] 공중화장실/시설 POI 근거리 확인 / [좌표품질:INTERNAL] 건물/시설 내부 편의시설이라 지도 좌표만으로 접근 가능한 입구를 확정할 수 없음; POI 근거 기장군국민체육센터 15.4m / 카카오=기장군국민체육센터(23.8m); POI=기장군국민체육센터(15.4m),35.3051190,129.2430370,,,,,,,public_toilet:1987,3253,,public_toilet:1987,2026-04-27T16:09:24.750772+00:00,CATEGORY_REVIEW,KAKAO,KAKAO_STRONG,기장군국민체육센터,23.8,MATCH_STRONG,기장군국민체육센터,15.4
facility:3261,facility,3261,기장군,기장군노인복지회관,TOILET,KEEP,유지,INTERNAL,건물/시설 내부 편의시설이라 지도 좌표만으로 접근 가능한 입구를 확정할 수 없음; POI 근거 기장군노인복지관 11.8m,POI,11.8,[지도/POI 1차판정] 카카오 지도 근거 확인 / [좌표품질:INTERNAL] 건물/시설 내부 편의시설이라 지도 좌표만으로 접근 가능한 입구를 확정할 수 없음; POI 근거 기장군노인복지관 11.8m / 카카오=기장군노인복지관(14.3m); POI=기장군노인복지관(11.8m),35.2352290,129.2125890,,,,,,,public_toilet:1997,3261,,public_toilet:1997,2026-04-27T16:09:24.750772+00:00,RENAME_REVIEW,KAKAO,KAKAO_STRONG,기장군노인복지관,14.3,MATCH_STRONG,기장군노인복지관,11.8
facility:3203,facility,3203,기장군,기장군농업기술센터 본관,TOILET,KEEP,유지,INTERNAL,건물/시설 내부 편의시설이라 지도 좌표만으로 접근 가능한 입구를 확정할 수 없음; POI 근거 기장군농업기술센터 25.4m,POI,25.4,[지도/POI 1차판정] 공중화장실/시설 POI 근거리 확인 / [좌표품질:INTERNAL] 건물/시설 내부 편의시설이라 지도 좌표만으로 접근 가능한 입구를 확정할 수 없음; POI 근거 기장군농업기술센터 25.4m / 카카오=기장군농업기술센터(25.8m); POI=기장군농업기술센터(25.4m),35.2526500,129.1953000,,,,,,,public_toilet:1931,3203,,public_toilet:1931,2026-04-27T16:09:24.750772+00:00,CATEGORY_REVIEW,KAKAO,KAKAO_STRONG,기장군농업기술센터,25.8,MATCH_STRONG,기장군농업기술센터,25.4
facility:3132,facility,3132,기장군,기장군농업기술센터 아카데미관,TOILET,KEEP,유지,INTERNAL,건물/시설 내부 편의시설이라 지도 좌표만으로 접근 가능한 입구를 확정할 수 없음; POI 근거 부산광역시기장군농업기술센터 23.6m,POI,23.6,[지도/POI 1차판정] 공중화장실/시설 POI 근거리 확인 / [좌표품질:INTERNAL] 건물/시설 내부 편의시설이라 지도 좌표만으로 접근 가능한 입구를 확정할 수 없음; POI 근거 부산광역시기장군농업기술센터 23.6m / 카카오=기장군농업기술센터(38.9m); POI=부산광역시기장군농업기술센터(23.6m),35.2523500,129.1953000,,,,,,,public_toilet:1849,3132,,public_toilet:1849,2026-04-27T16:09:24.750772+00:00,CATEGORY_REVIEW,KAKAO,KAKAO_STRONG,기장군농업기술센터,38.9,MATCH_STRONG,부산광역시기장군농업기술센터,23.6
facility:3115,facility,3115,기장군,기장군도시관리공단,TOILET,KEEP,유지,INTERNAL,건물/시설 내부 편의시설이라 지도 좌표만으로 접근 가능한 입구를 확정할 수 없음; POI 근거 기장군도시관리공단 3.9m,POI,3.9,[지도/POI 1차판정] 공중화장실/시설 POI 근거리 확인 / [좌표품질:INTERNAL] 건물/시설 내부 편의시설이라 지도 좌표만으로 접근 가능한 입구를 확정할 수 없음; POI 근거 기장군도시관리공단 3.9m / 카카오=기장군도시관리공단(4.5m); POI=기장군도시관리공단(3.9m),35.3230280,129.1834200,,,,,,,public_toilet:1831,3115,,public_toilet:1831,2026-04-27T16:09:24.750772+00:00,CATEGORY_REVIEW,KAKAO,KAKAO_STRONG,기장군도시관리공단,4.5,MATCH_STRONG,기장군도시관리공단,3.9
facility:3236,facility,3236,기장군,기장군선거관리위원회,TOILET,KEEP,유지,INTERNAL,건물/시설 내부 편의시설이라 지도 좌표만으로 접근 가능한 입구를 확정할 수 없음; POI 근거 기장군선거관리위원회 6.3m,POI,6.3,[지도/POI 1차판정] 공중화장실/시설 POI 근거리 확인 / [좌표품질:INTERNAL] 건물/시설 내부 편의시설이라 지도 좌표만으로 접근 가능한 입구를 확정할 수 없음; POI 근거 기장군선거관리위원회 6.3m / 카카오=기장군 선거관리위원회(5.1m); POI=기장군선거관리위원회(6.3m),35.2370320,129.2144600,,,,,,,public_toilet:1967,3236,,public_toilet:1967,2026-04-27T16:09:24.750772+00:00,CATEGORY_REVIEW,KAKAO,KAKAO_STRONG,기장군 선거관리위원회,5.1,MATCH_STRONG,기장군선거관리위원회,6.3
facility:3127,facility,3127,기장군,기장군수산자원연구센터,TOILET,KEEP,유지,INTERNAL,건물/시설 내부 편의시설이라 지도 좌표만으로 접근 가능한 입구를 확정할 수 없음; POI 근거 공중화장실 68.5m,POI,68.5,[지도/POI 1차판정] 공중화장실/시설 POI 근거리 확인 / [좌표품질:INTERNAL] 건물/시설 내부 편의시설이라 지도 좌표만으로 접근 가능한 입구를 확정할 수 없음; POI 근거 공중화장실 68.5m / 카카오=수산자원연구센터(81.1m); POI=공중화장실(68.5m),35.2699550,129.2431620,,,,,,,public_toilet:1843,3127,,public_toilet:1843,2026-04-27T16:09:24.750772+00:00,CATEGORY_REVIEW,KAKAO,KAKAO_STRONG,수산자원연구센터,81.1,MATCH_MEDIUM,공중화장실,68.5
facility:3145,facility,3145,기장군,기장군육아종합지원센터,TOILET,KEEP,유지,INTERNAL,건물/시설 내부 편의시설이라 지도 좌표만으로 접근 가능한 입구를 확정할 수 없음; POI 근거 기장군육아종합지원센터 2.1m,POI,2.1,[지도/POI 1차판정] 공중화장실/시설 POI 근거리 확인 / [좌표품질:INTERNAL] 건물/시설 내부 편의시설이라 지도 좌표만으로 접근 가능한 입구를 확정할 수 없음; POI 근거 기장군육아종합지원센터 2.1m / 카카오=기장군육아종합지원센터(14.4m); POI=기장군육아종합지원센터(2.1m),35.3262307,129.1818687,,,,,,,public_toilet:1863,3145,,public_toilet:1863,2026-04-27T16:09:24.750772+00:00,CATEGORY_REVIEW,KAKAO,KAKAO_STRONG,기장군육아종합지원센터,14.4,MATCH_STRONG,기장군육아종합지원센터,2.1
facility:3269,facility,3269,기장군,기장군지회부설노인대학,TOILET,KEEP,유지,INTERNAL,건물/시설 내부 편의시설이라 지도 좌표만으로 접근 가능한 입구를 확정할 수 없음; POI 근거 기장군노인회관 22.6m,POI,22.6,[지도/POI 1차판정] 카카오 지도 근거 확인 / [좌표품질:INTERNAL] 건물/시설 내부 편의시설이라 지도 좌표만으로 접근 가능한 입구를 확정할 수 없음; POI 근거 기장군노인회관 22.6m / 카카오=기장군 노인회관(25.8m); POI=기장군노인회관(22.6m),35.2476975,129.2132068,,,,,,,public_toilet:2008,3269,,public_toilet:2008,2026-04-27T16:09:24.750772+00:00,RENAME_REVIEW,KAKAO,KAKAO_STRONG,기장군 노인회관,25.8,MATCH_STRONG,기장군노인회관,22.6
facility:3146,facility,3146,기장군,기장군청,TOILET,KEEP,유지,INTERNAL,건물/시설 내부 편의시설이라 지도 좌표만으로 접근 가능한 입구를 확정할 수 없음; POI 근거 기장군청 18.0m,POI,18.0,[지도/POI 1차판정] 공중화장실/시설 POI 근거리 확인 / [좌표품질:INTERNAL] 건물/시설 내부 편의시설이라 지도 좌표만으로 접근 가능한 입구를 확정할 수 없음; POI 근거 기장군청 18.0m / 카카오=기장군청(35.1m); POI=기장군청(18.0m),35.2447050,129.2222620,,,,,,,public_toilet:1864,3146,,public_toilet:1864,2026-04-27T16:09:24.750772+00:00,CATEGORY_REVIEW,KAKAO,KAKAO_STRONG,기장군청,35.1,MATCH_STRONG,기장군청,18.0
facility:3196,facility,3196,기장군,기장군청소년수련관,TOILET,KEEP,유지,INTERNAL,건물/시설 내부 편의시설이라 지도 좌표만으로 접근 가능한 입구를 확정할 수 없음; POI 근거 기장군청소년수련관 24.6m,POI,24.6,[지도/POI 1차판정] 공중화장실/시설 POI 근거리 확인 / [좌표품질:INTERNAL] 건물/시설 내부 편의시설이라 지도 좌표만으로 접근 가능한 입구를 확정할 수 없음; POI 근거 기장군청소년수련관 24.6m / 카카오=기장군청소년수련관(44.9m); POI=기장군청소년수련관(24.6m),35.3108000,129.2001000,,,,,,,public_toilet:1919,3196,,public_toilet:1919,2026-04-27T16:09:24.750772+00:00,CATEGORY_REVIEW,KAKAO,KAKAO_STRONG,기장군청소년수련관,44.9,MATCH_STRONG,기장군청소년수련관,24.6
facility:3186,facility,3186,기장군,기장도서관(본관),TOILET,KEEP,유지,INTERNAL,건물/시설 내부 편의시설이라 지도 좌표만으로 접근 가능한 입구를 확정할 수 없음; POI 근거 기장도서관 10.3m,POI,10.3,[지도/POI 1차판정] 공중화장실/시설 POI 근거리 확인 / [좌표품질:INTERNAL] 건물/시설 내부 편의시설이라 지도 좌표만으로 접근 가능한 입구를 확정할 수 없음; POI 근거 기장도서관 10.3m / 카카오=무인민원발급창구 기장도서관(11.9m); POI=기장도서관(10.3m),35.2497540,129.2174060,,,,,,,public_toilet:1909,3186,,public_toilet:1909,2026-04-27T16:09:24.750772+00:00,CATEGORY_REVIEW,KAKAO,KAKAO_STRONG,무인민원발급창구 기장도서관,11.9,MATCH_STRONG,기장도서관,10.3
facility:3226,facility,3226,기장군,기장도서관어린이실(별관),TOILET,KEEP,유지,INTERNAL,건물/시설 내부 편의시설이라 지도 좌표만으로 접근 가능한 입구를 확정할 수 없음; POI 근거 기장도서관 15.0m,POI,15.0,[지도/POI 1차판정] 공중화장실/시설 POI 근거리 확인 / [좌표품질:INTERNAL] 건물/시설 내부 편의시설이라 지도 좌표만으로 접근 가능한 입구를 확정할 수 없음; POI 근거 기장도서관 15.0m / 카카오=기장도서관(26.2m); POI=기장도서관(15.0m),35.2494660,129.2174230,,,,,,,public_toilet:1956,3226,,public_toilet:1956,2026-04-27T16:09:24.750772+00:00,CATEGORY_REVIEW,KAKAO,KAKAO_STRONG,기장도서관,26.2,MATCH_STRONG,기장도서관,15.0
facility:3123,facility,3123,기장군,기장문화원,TOILET,KEEP,유지,INTERNAL,건물/시설 내부 편의시설이라 지도 좌표만으로 접근 가능한 입구를 확정할 수 없음; POI 근거 기장문화원 3.7m,POI,3.7,[지도/POI 1차판정] 공중화장실/시설 POI 근거리 확인 / [좌표품질:INTERNAL] 건물/시설 내부 편의시설이라 지도 좌표만으로 접근 가능한 입구를 확정할 수 없음; POI 근거 기장문화원 3.7m / 카카오=기장 문화원(3.6m); POI=기장문화원(3.7m),35.2352690,129.2216700,,,,,,,public_toilet:1839,3123,,public_toilet:1839,2026-04-27T16:09:24.750772+00:00,CATEGORY_REVIEW,KAKAO,KAKAO_STRONG,기장 문화원,3.6,MATCH_STRONG,기장문화원,3.7
facility:3204,facility,3204,기장군,기장생활체육센터,TOILET,KEEP,유지,INTERNAL,건물/시설 내부 편의시설이라 지도 좌표만으로 접근 가능한 입구를 확정할 수 없음; POI 근거 기장생활체육센터 15.9m,POI,15.9,[지도/POI 1차판정] 공중화장실/시설 POI 근거리 확인 / [좌표품질:INTERNAL] 건물/시설 내부 편의시설이라 지도 좌표만으로 접근 가능한 입구를 확정할 수 없음; POI 근거 기장생활체육센터 15.9m / 카카오=기장생활체육센터(19.0m); POI=기장생활체육센터(15.9m),35.2435230,129.2082230,,,,,,,public_toilet:1933,3204,,public_toilet:1933,2026-04-27T16:09:24.750772+00:00,CATEGORY_REVIEW,KAKAO,KAKAO_STRONG,기장생활체육센터,19.0,MATCH_STRONG,기장생활체육센터,15.9
facility:3228,facility,3228,기장군,기장수산물체험홍보센터,TOILET,KEEP,유지,INTERNAL,건물/시설 내부 편의시설이라 지도 좌표만으로 접근 가능한 입구를 확정할 수 없음; POI 근거 공중화장실 14.5m,POI,14.5,[지도/POI 1차판정] 공중화장실/시설 POI 근거리 확인 / [좌표품질:INTERNAL] 건물/시설 내부 편의시설이라 지도 좌표만으로 접근 가능한 입구를 확정할 수 없음; POI 근거 공중화장실 14.5m / 카카오=기장수산물체험홍보센터(16.7m); POI=공중화장실(14.5m),35.2208350,129.2350390,,,,,,,public_toilet:1959,3228,,public_toilet:1959,2026-04-27T16:09:24.750772+00:00,CATEGORY_REVIEW,KAKAO,KAKAO_STRONG,기장수산물체험홍보센터,16.7,MATCH_STRONG,공중화장실,14.5
facility:3216,facility,3216,기장군,기장시장공영주차장,TOILET,KEEP,유지,INTERNAL,건물/시설 내부 편의시설이라 지도 좌표만으로 접근 가능한 입구를 확정할 수 없음; POI 근거 기장시장공영주차장 24.6m,POI,24.6,[지도/POI 1차판정] 공중화장실/시설 POI 근거리 확인 / [좌표품질:INTERNAL] 건물/시설 내부 편의시설이라 지도 좌표만으로 접근 가능한 입구를 확정할 수 없음; POI 근거 기장시장공영주차장 24.6m / 카카오=기장시장 공영주차장(26.2m); POI=기장시장공영주차장(24.6m),35.2443830,129.2149520,,,,,,,public_toilet:1945,3216,,public_toilet:1945,2026-04-27T16:09:24.750772+00:00,CATEGORY_REVIEW,KAKAO,KAKAO_STRONG,기장시장 공영주차장,26.2,MATCH_STRONG,기장시장공영주차장,24.6
facility:3193,facility,3193,기장군,기장우체국 1층,TOILET,KEEP,유지,INTERNAL,건물/시설 내부 편의시설이라 지도 좌표만으로 접근 가능한 입구를 확정할 수 없음; POI 근거 기장우체국 7.8m,POI,7.8,[지도/POI 1차판정] 공중화장실/시설 POI 근거리 확인 / [좌표품질:INTERNAL] 건물/시설 내부 편의시설이라 지도 좌표만으로 접근 가능한 입구를 확정할 수 없음; POI 근거 기장우체국 7.8m / 카카오=기장우체국(9.8m); POI=기장우체국(7.8m),35.2357910,129.2183610,,,,,,,public_toilet:1916,3193,,public_toilet:1916,2026-04-27T16:09:24.750772+00:00,CATEGORY_REVIEW,KAKAO,KAKAO_STRONG,기장우체국,9.8,MATCH_STRONG,기장우체국,7.8
facility:3201,facility,3201,기장군,기장장관청,TOILET,KEEP,유지,INTERNAL,건물/시설 내부 편의시설이라 지도 좌표만으로 접근 가능한 입구를 확정할 수 없음; POI 근거 공중화장실 4.4m,POI,4.4,[지도/POI 1차판정] 공중화장실/시설 POI 근거리 확인 / [좌표품질:INTERNAL] 건물/시설 내부 편의시설이라 지도 좌표만으로 접근 가능한 입구를 확정할 수 없음; POI 근거 공중화장실 4.4m / 카카오=기장 장관청(40.1m); POI=공중화장실(4.4m),35.2440810,129.2125330,,,,,,,public_toilet:1926,3201,,public_toilet:1926,2026-04-27T16:09:24.750772+00:00,CATEGORY_REVIEW,KAKAO,KAKAO_MEDIUM,기장 장관청,40.1,MATCH_MEDIUM,공중화장실,4.4
facility:3188,facility,3188,기장군,기장종합사회복지관,TOILET,KEEP,유지,INTERNAL,건물/시설 내부 편의시설이라 지도 좌표만으로 접근 가능한 입구를 확정할 수 없음; POI 근거 기장종합사회복지관 10.0m,POI,10.0,[지도/POI 1차판정] 공중화장실/시설 POI 근거리 확인 / [좌표품질:INTERNAL] 건물/시설 내부 편의시설이라 지도 좌표만으로 접근 가능한 입구를 확정할 수 없음; POI 근거 기장종합사회복지관 10.0m / 카카오=기장종합사회복지관(9.3m); POI=기장종합사회복지관(10.0m),35.2359330,129.2136650,,,,,,,public_toilet:1911,3188,,public_toilet:1911,2026-04-27T16:09:24.750772+00:00,CATEGORY_REVIEW,KAKAO,KAKAO_STRONG,기장종합사회복지관,9.3,MATCH_STRONG,기장종합사회복지관,10.0
facility:3163,facility,3163,기장군,기장지구대,TOILET,KEEP,유지,INTERNAL,건물/시설 내부 편의시설이라 지도 좌표만으로 접근 가능한 입구를 확정할 수 없음; POI 근거 기장지구대 4.4m,POI,4.4,[지도/POI 1차판정] 공중화장실/시설 POI 근거리 확인 / [좌표품질:INTERNAL] 건물/시설 내부 편의시설이라 지도 좌표만으로 접근 가능한 입구를 확정할 수 없음; POI 근거 기장지구대 4.4m / 카카오=기장지구대(8.3m); POI=기장지구대(4.4m),35.2459320,129.2174750,,,,,,,public_toilet:1882,3163,,public_toilet:1882,2026-04-27T16:09:24.750772+00:00,CATEGORY_REVIEW,KAKAO,KAKAO_STRONG,기장지구대,8.3,MATCH_STRONG,기장지구대,4.4
facility:3247,facility,3247,기장군,기장체육관,TOILET,KEEP,유지,INTERNAL,건물/시설 내부 편의시설이라 지도 좌표만으로 접근 가능한 입구를 확정할 수 없음; POI 근거 기장체육관 8.7m,POI,8.7,[지도/POI 1차판정] 공중화장실/시설 POI 근거리 확인 / [좌표품질:INTERNAL] 건물/시설 내부 편의시설이라 지도 좌표만으로 접근 가능한 입구를 확정할 수 없음; POI 근거 기장체육관 8.7m / 카카오=기장체육관(14.7m); POI=기장체육관(8.7m),35.2521937,129.2233449,,,,,,,public_toilet:1979,3247,,public_toilet:1979,2026-04-27T16:09:24.750772+00:00,CATEGORY_REVIEW,KAKAO,KAKAO_STRONG,기장체육관,14.7,MATCH_STRONG,기장체육관,8.7
facility:3244,facility,3244,기장군,내리새라도서관,TOILET,KEEP,유지,INTERNAL,건물/시설 내부 편의시설이라 지도 좌표만으로 접근 가능한 입구를 확정할 수 없음; POI 근거 내리새라도서관 16.4m,POI,16.4,[지도/POI 1차판정] 공중화장실/시설 POI 근거리 확인 / [좌표품질:INTERNAL] 건물/시설 내부 편의시설이라 지도 좌표만으로 접근 가능한 입구를 확정할 수 없음; POI 근거 내리새라도서관 16.4m / 카카오=내리새라도서관(12.9m); POI=내리새라도서관(16.4m),35.2019667,129.2061653,,,,,,,public_toilet:1976,3244,,public_toilet:1976,2026-04-27T16:09:24.750772+00:00,CATEGORY_REVIEW,KAKAO,KAKAO_STRONG,내리새라도서관,12.9,MATCH_STRONG,내리새라도서관,16.4
facility:3131,facility,3131,기장군,농업기술센터 유용미생물배양장,TOILET,KEEP,유지,INTERNAL,건물/시설 내부 편의시설이라 지도 좌표만으로 접근 가능한 입구를 확정할 수 없음; POI 근거 기장군농업기술센터유용미생물배양장입구 21.2m,POI,21.2,[지도/POI 1차판정] 카카오 지도 근거 확인 / [좌표품질:INTERNAL] 건물/시설 내부 편의시설이라 지도 좌표만으로 접근 가능한 입구를 확정할 수 없음; POI 근거 기장군농업기술센터유용미생물배양장입구 21.2m / 카카오=기장군 유용미생물배양장(5.0m); POI=기장군농업기술센터유용미생물배양장입구(21.2m),35.2525200,129.1931000,,,,,,,public_toilet:1848,3131,,public_toilet:1848,2026-04-27T16:09:24.750772+00:00,RENAME_REVIEW,KAKAO,KAKAO_STRONG,기장군 유용미생물배양장,5.0,MATCH_STRONG,기장군농업기술센터유용미생물배양장입구,21.2
facility:3219,facility,3219,기장군,대라다목적도서관,TOILET,KEEP,유지,INTERNAL,건물/시설 내부 편의시설이라 지도 좌표만으로 접근 가능한 입구를 확정할 수 없음; POI 근거 대라다목적도서관 22.7m,POI,22.7,[지도/POI 1차판정] 공중화장실/시설 POI 근거리 확인 / [좌표품질:INTERNAL] 건물/시설 내부 편의시설이라 지도 좌표만으로 접근 가능한 입구를 확정할 수 없음; POI 근거 대라다목적도서관 22.7m / 카카오=대라다목적도서관(23.8m); POI=대라다목적도서관(22.7m),35.2410090,129.2106220,,,,,,,public_toilet:1948,3219,,public_toilet:1948,2026-04-27T16:09:24.750772+00:00,CATEGORY_REVIEW,KAKAO,KAKAO_STRONG,대라다목적도서관,23.8,MATCH_STRONG,대라다목적도서관,22.7
facility:3263,facility,3263,기장군,리틀-소프트볼구장,TOILET,KEEP,유지,INTERNAL,건물/시설 내부 편의시설이라 지도 좌표만으로 접근 가능한 입구를 확정할 수 없음; POI 근거 리틀야구장및소프트볼구장 27.0m,POI,27.0,[지도/POI 1차판정] 카카오 지도 근거 확인 / [좌표품질:INTERNAL] 건물/시설 내부 편의시설이라 지도 좌표만으로 접근 가능한 입구를 확정할 수 없음; POI 근거 리틀야구장및소프트볼구장 27.0m / 카카오=리틀야구장 소프트볼경기장(19.0m); POI=리틀야구장및소프트볼구장(27.0m),35.3005070,129.2423930,,,,,,,public_toilet:2000,3263,,public_toilet:2000,2026-04-27T16:09:24.750772+00:00,RENAME_REVIEW,KAKAO,KAKAO_STRONG,리틀야구장 소프트볼경기장,19.0,MATCH_STRONG,리틀야구장및소프트볼구장,27.0
facility:3154,facility,3154,기장군,부산모전우체국,TOILET,KEEP,유지,INTERNAL,건물/시설 내부 편의시설이라 지도 좌표만으로 접근 가능한 입구를 확정할 수 없음; POI 근거 부산모전우체국 3.2m,POI,3.2,[지도/POI 1차판정] 공중화장실/시설 POI 근거리 확인 / [좌표품질:INTERNAL] 건물/시설 내부 편의시설이라 지도 좌표만으로 접근 가능한 입구를 확정할 수 없음; POI 근거 부산모전우체국 3.2m / 카카오=부산모전우체국(3.3m); POI=부산모전우체국(3.2m),35.3352640,129.1659750,,,,,,,public_toilet:1872,3154,,public_toilet:1872,2026-04-27T16:09:24.750772+00:00,CATEGORY_REVIEW,KAKAO,KAKAO_STRONG,부산모전우체국,3.3,MATCH_STRONG,부산모전우체국,3.2
facility:3103,facility,3103,기장군,부산시설공단 곰내지소,TOILET,KEEP,유지,INTERNAL,건물/시설 내부 편의시설이라 지도 좌표만으로 접근 가능한 입구를 확정할 수 없음; POI 근거 부산시설공단곰내터널지소 8.1m,POI,8.1,[지도/POI 1차판정] 공중화장실/시설 POI 근거리 확인 / [좌표품질:INTERNAL] 건물/시설 내부 편의시설이라 지도 좌표만으로 접근 가능한 입구를 확정할 수 없음; POI 근거 부산시설공단곰내터널지소 8.1m / 카카오=부산시설공단 곰내지소(17.4m); POI=부산시설공단곰내터널지소(8.1m),35.2966560,129.1692100,,,,,,,public_toilet:1816,3103,,public_toilet:1816,2026-04-27T16:09:24.750772+00:00,CATEGORY_REVIEW,KAKAO,KAKAO_STRONG,부산시설공단 곰내지소,17.4,MATCH_STRONG,부산시설공단곰내터널지소,8.1
facility:3089,facility,3089,기장군,부산울산고속도로 동부산영업소,TOILET,KEEP,유지,INTERNAL,건물/시설 내부 편의시설이라 지도 좌표만으로 접근 가능한 입구를 확정할 수 없음; POI 근거 동부산요금소 7.1m,POI,7.1,[지도/POI 1차판정] 공중화장실/시설 POI 근거리 확인 / [좌표품질:INTERNAL] 건물/시설 내부 편의시설이라 지도 좌표만으로 접근 가능한 입구를 확정할 수 없음; POI 근거 동부산요금소 7.1m / POI=동부산요금소(7.1m),35.1993524,129.2056745,,,,,,,public_toilet:1800,3089,,public_toilet:1800,2026-04-27T16:09:24.750772+00:00,POI_ONLY_CATEGORY_RECHECK,POI,KAKAO_NO_RESULT,,,MATCH_MEDIUM,동부산요금소,7.1
facility:3124,facility,3124,기장군,부산울산고속도로 장안영업소,TOILET,KEEP,유지,INTERNAL,건물/시설 내부 편의시설이라 지도 좌표만으로 접근 가능한 입구를 확정할 수 없음; POI 근거 한국도로공사장안영업소 28.2m,POI,28.2,[지도/POI 1차판정] 공중화장실/시설 POI 근거리 확인 / [좌표품질:INTERNAL] 건물/시설 내부 편의시설이라 지도 좌표만으로 접근 가능한 입구를 확정할 수 없음; POI 근거 한국도로공사장안영업소 28.2m / 카카오=부산울산고속도로 장안영업소(27.1m); POI=한국도로공사장안영업소(28.2m),35.3286449,129.2415358,,,,,,,public_toilet:1840,3124,,public_toilet:1840,2026-04-27T16:09:24.750772+00:00,CATEGORY_REVIEW,KAKAO,KAKAO_STRONG,부산울산고속도로 장안영업소,27.1,MATCH_STRONG,한국도로공사장안영업소,28.2
facility:3122,facility,3122,기장군,부산치유의숲 방문자센터,TOILET,KEEP,유지,INTERNAL,건물/시설 내부 편의시설이라 지도 좌표만으로 접근 가능한 입구를 확정할 수 없음; POI 근거 치유의숲방문자센터 60.7m,POI,60.7,[지도/POI 1차판정] 공중화장실/시설 POI 근거리 확인 / [좌표품질:INTERNAL] 건물/시설 내부 편의시설이라 지도 좌표만으로 접근 가능한 입구를 확정할 수 없음; POI 근거 치유의숲방문자센터 60.7m / 카카오=부산치유의숲 방문자센터(58.9m); POI=치유의숲방문자센터(60.7m),35.2700000,129.1290000,,,,,,,public_toilet:1838,3122,,public_toilet:1838,2026-04-27T16:09:24.750772+00:00,CATEGORY_REVIEW,KAKAO,KAKAO_STRONG,부산치유의숲 방문자센터,58.9,MATCH_STRONG,치유의숲방문자센터,60.7
facility:3260,facility,3260,기장군,부산환경공단 기장사업소 공원,TOILET,KEEP,유지,INTERNAL,건물/시설 내부 편의시설이라 지도 좌표만으로 접근 가능한 입구를 확정할 수 없음; POI 근거 부산환경공단기장사업소 12.6m,POI,12.6,[지도/POI 1차판정] 카카오 지도 근거 확인 / [좌표품질:INTERNAL] 건물/시설 내부 편의시설이라 지도 좌표만으로 접근 가능한 입구를 확정할 수 없음; POI 근거 부산환경공단기장사업소 12.6m / 카카오=부산환경공단 기장사업소 테니스장(40.1m); POI=부산환경공단기장사업소(12.6m),35.2442024,129.2253347,,,,,,,public_toilet:1995,3260,,public_toilet:1995,2026-04-27T16:09:24.750772+00:00,RENAME_REVIEW,KAKAO,KAKAO_STRONG,부산환경공단 기장사업소 테니스장,40.1,MATCH_STRONG,부산환경공단기장사업소,12.6
facility:3165,facility,3165,기장군,부산환경공단 문오성처리장 공원,TOILET,KEEP,유지,INTERNAL,건물/시설 내부 편의시설이라 지도 좌표만으로 접근 가능한 입구를 확정할 수 없음; POI 근거 공중화장실 15.0m,POI,15.0,[지도/POI 1차판정] 카카오 지도 근거 확인 / [좌표품질:INTERNAL] 건물/시설 내부 편의시설이라 지도 좌표만으로 접근 가능한 입구를 확정할 수 없음; POI 근거 공중화장실 15.0m / 카카오=문오성하수종말처리시설(22.9m); POI=공중화장실(15.0m),35.2965229,129.2538108,,,,,,,public_toilet:1885,3165,,public_toilet:1885,2026-04-27T16:09:24.750772+00:00,RENAME_REVIEW,KAKAO,KAKAO_STRONG,문오성하수종말처리시설,22.9,MATCH_STRONG,공중화장실,15.0
facility:3116,facility,3116,기장군,부산환경공단 일광처리장 공원,TOILET,KEEP,유지,INTERNAL,건물/시설 내부 편의시설이라 지도 좌표만으로 접근 가능한 입구를 확정할 수 없음; POI 근거 공중화장실 16.9m,POI,16.9,[지도/POI 1차판정] 카카오 지도 근거 확인 / [좌표품질:INTERNAL] 건물/시설 내부 편의시설이라 지도 좌표만으로 접근 가능한 입구를 확정할 수 없음; POI 근거 공중화장실 16.9m / 카카오=부산환경공단 일광하수처리시설(16.9m); POI=공중화장실(16.9m),35.2593458,129.2234883,,,,,,,public_toilet:1832,3116,,public_toilet:1832,2026-04-27T16:09:24.750772+00:00,RENAME_REVIEW,KAKAO,KAKAO_STRONG,부산환경공단 일광하수처리시설,16.9,MATCH_STRONG,공중화장실,16.9
facility:3202,facility,3202,기장군,부울고속도로 기장일광영업소,TOILET,KEEP,유지,INTERNAL,건물/시설 내부 편의시설이라 지도 좌표만으로 접근 가능한 입구를 확정할 수 없음; POI 근거 공중화장실 50.5m,POI,50.5,[지도/POI 1차판정] 카카오 지도 근거 확인 / [좌표품질:INTERNAL] 건물/시설 내부 편의시설이라 지도 좌표만으로 접근 가능한 입구를 확정할 수 없음; POI 근거 공중화장실 50.5m / 카카오=부산울산고속도로 기장일광영업소(9.2m); POI=공중화장실(50.5m),35.2779142,129.2273633,,,,,,,public_toilet:1930,3202,,public_toilet:1930,2026-04-27T16:09:24.750772+00:00,RENAME_REVIEW,KAKAO,KAKAO_STRONG,부산울산고속도로 기장일광영업소,9.2,MATCH_MEDIUM,공중화장실,50.5
facility:3249,facility,3249,기장군,부울고속도로해운대송정영업소,TOILET,KEEP,유지,INTERNAL,건물/시설 내부 편의시설이라 지도 좌표만으로 접근 가능한 입구를 확정할 수 없음; POI 근거 한국도로공사해운대송정영업소 4.6m,POI,4.6,[지도/POI 1차판정] 카카오 지도 근거 확인 / [좌표품질:INTERNAL] 건물/시설 내부 편의시설이라 지도 좌표만으로 접근 가능한 입구를 확정할 수 없음; POI 근거 한국도로공사해운대송정영업소 4.6m / 카카오=한국도로공사서비스 해운대송정영업소(1.9m); POI=한국도로공사해운대송정영업소(4.6m),35.2166138,129.2056005,,,,,,,public_toilet:1982,3249,,public_toilet:1982,2026-04-27T16:09:24.750772+00:00,RENAME_REVIEW,KAKAO,KAKAO_STRONG,한국도로공사서비스 해운대송정영업소,1.9,MATCH_STRONG,한국도로공사해운대송정영업소,4.6
facility:3112,facility,3112,기장군,상수도사업본부 기장사업소,TOILET,KEEP,유지,INTERNAL,건물/시설 내부 편의시설이라 지도 좌표만으로 접근 가능한 입구를 확정할 수 없음; POI 근거 공중화장실 7.4m,POI,7.4,[지도/POI 1차판정] 공중화장실/시설 POI 근거리 확인 / [좌표품질:INTERNAL] 건물/시설 내부 편의시설이라 지도 좌표만으로 접근 가능한 입구를 확정할 수 없음; POI 근거 공중화장실 7.4m / 카카오=부산광역시 상수도사업본부 기장사업소(5.1m); POI=공중화장실(7.4m),35.2408110,129.2159840,,,,,,,public_toilet:1827,3112,,public_toilet:1827,2026-04-27T16:09:24.750772+00:00,CATEGORY_REVIEW,KAKAO,KAKAO_STRONG,부산광역시 상수도사업본부 기장사업소,5.1,MATCH_STRONG,공중화장실,7.4
facility:3147,facility,3147,기장군,소두방공원 관리사무실,TOILET,KEEP,유지,INTERNAL,건물/시설 내부 편의시설이라 지도 좌표만으로 접근 가능한 입구를 확정할 수 없음; POI 근거 소두방공원관리사무소 6.5m,POI,6.5,[지도/POI 1차판정] 카카오 지도 근거 확인 / [좌표품질:INTERNAL] 건물/시설 내부 편의시설이라 지도 좌표만으로 접근 가능한 입구를 확정할 수 없음; POI 근거 소두방공원관리사무소 6.5m / 카카오=정관체육시설(5.8m); POI=소두방공원관리사무소(6.5m),35.3285611,129.1839049,,,,,,,public_toilet:1865,3147,,public_toilet:1865,2026-04-27T16:09:24.750772+00:00,RENAME_REVIEW,KAKAO,KAKAO_MEDIUM,정관체육시설,5.8,MATCH_STRONG,소두방공원관리사무소,6.5
facility:3191,facility,3191,기장군,송정천체육공원,TOILET,KEEP,유지,INTERNAL,건물/시설 내부 편의시설이라 지도 좌표만으로 접근 가능한 입구를 확정할 수 없음; POI 근거 공중화장실 2.1m,POI,2.1,[지도/POI 1차판정] 공중화장실/시설 POI 근거리 확인 / [좌표품질:INTERNAL] 건물/시설 내부 편의시설이라 지도 좌표만으로 접근 가능한 입구를 확정할 수 없음; POI 근거 공중화장실 2.1m / 카카오=송정어울림체육공원(15780.4m); POI=공중화장실(2.1m),35.3050100,129.1096740,,,,,,,public_toilet:1914,3191,,public_toilet:1914,2026-04-27T16:09:24.750772+00:00,POI_ONLY_RECHECK,POI,KAKAO_REVIEW,송정어울림체육공원,15780.4,MATCH_STRONG,공중화장실,2.1
facility:3178,facility,3178,기장군,수산과학관 야외화장실,TOILET,KEEP,유지,INTERNAL,건물/시설 내부 편의시설이라 지도 좌표만으로 접근 가능한 입구를 확정할 수 없음; POI 근거 파로드시랑 33.4m,POI,33.4,[지도/POI 1차판정] 공중화장실/시설 POI 근거리 확인 / [좌표품질:INTERNAL] 건물/시설 내부 편의시설이라 지도 좌표만으로 접근 가능한 입구를 확정할 수 없음; POI 근거 파로드시랑 33.4m / 카카오=국립수산과학관(63.4m); POI=파로드시랑(33.4m),35.1939000,129.2244000,,,,,,,public_toilet:1900,3178,,public_toilet:1900,2026-04-27T16:09:24.750772+00:00,POI_ONLY_CATEGORY_RECHECK,POI,KAKAO_WEAK,국립수산과학관,63.4,MATCH_MEDIUM,파로드시랑,33.4
facility:3135,facility,3135,기장군,수산과학관 전시관 1층 화장실,TOILET,KEEP,유지,INTERNAL,건물/시설 내부 편의시설이라 지도 좌표만으로 접근 가능한 입구를 확정할 수 없음; POI 근거 공중화장실 125.3m,POI,125.3,[지도/POI 1차판정] 카카오 지도 근거 확인 / [좌표품질:INTERNAL] 건물/시설 내부 편의시설이라 지도 좌표만으로 접근 가능한 입구를 확정할 수 없음; POI 근거 공중화장실 125.3m / 카카오=국립수산과학관(6.9m); POI=공중화장실(125.3m),35.1933000,129.2244000,,,,,,,public_toilet:1852,3135,,public_toilet:1852,2026-04-27T16:09:24.750772+00:00,RENAME_REVIEW,KAKAO,KAKAO_MEDIUM,국립수산과학관,6.9,MATCH_MEDIUM,공중화장실,125.3
facility:3099,facility,3099,기장군,수산과학관 전시관 2층 화장실,TOILET,KEEP,유지,INTERNAL,건물/시설 내부 편의시설이라 지도 좌표만으로 접근 가능한 입구를 확정할 수 없음; POI 근거 공중화장실 125.3m,POI,125.3,[지도/POI 1차판정] 카카오 지도 근거 확인 / [좌표품질:INTERNAL] 건물/시설 내부 편의시설이라 지도 좌표만으로 접근 가능한 입구를 확정할 수 없음; POI 근거 공중화장실 125.3m / 카카오=국립수산과학관(6.9m); POI=공중화장실(125.3m),35.1933000,129.2244000,,,,,,,public_toilet:1812,3099,,public_toilet:1812,2026-04-27T16:09:24.750772+00:00,RENAME_REVIEW,KAKAO,KAKAO_MEDIUM,국립수산과학관,6.9,MATCH_MEDIUM,공중화장실,125.3
facility:3118,facility,3118,기장군,수산과학관 종합편의시설,TOILET,KEEP,유지,INTERNAL,건물/시설 내부 편의시설이라 지도 좌표만으로 접근 가능한 입구를 확정할 수 없음; POI 근거 수산과학관(부산) 160.0m,POI,160.0,[지도/POI 1차판정] 카카오 지도 근거 확인 / [좌표품질:INTERNAL] 건물/시설 내부 편의시설이라 지도 좌표만으로 접근 가능한 입구를 확정할 수 없음; POI 근거 수산과학관(부산) 160.0m / 카카오=국립수산과학관(38.5m); POI=수산과학관(부산)(160.0m),35.1934600,129.2247300,,,,,,,public_toilet:1834,3118,,public_toilet:1834,2026-04-27T16:09:24.750772+00:00,RENAME_REVIEW,KAKAO,KAKAO_STRONG,국립수산과학관,38.5,MATCH_WEAK,수산과학관(부산),160.0
facility:3155,facility,3155,기장군,오리보건진료소,TOILET,KEEP,유지,INTERNAL,건물/시설 내부 편의시설이라 지도 좌표만으로 접근 가능한 입구를 확정할 수 없음; POI 근거 장안오리보건진료소 1.9m,POI,1.9,[지도/POI 1차판정] 공중화장실/시설 POI 근거리 확인 / [좌표품질:INTERNAL] 건물/시설 내부 편의시설이라 지도 좌표만으로 접근 가능한 입구를 확정할 수 없음; POI 근거 장안오리보건진료소 1.9m / 카카오=장안오리보건진료소(2.6m); POI=장안오리보건진료소(1.9m),35.3717970,129.2618210,,,,,,,public_toilet:1873,3155,,public_toilet:1873,2026-04-27T16:09:24.750772+00:00,CATEGORY_REVIEW,KAKAO,KAKAO_STRONG,장안오리보건진료소,2.6,MATCH_STRONG,장안오리보건진료소,1.9
facility:3106,facility,3106,기장군,용소웰빙공원(관리사무소옆),TOILET,KEEP,유지,INTERNAL,건물/시설 내부 편의시설이라 지도 좌표만으로 접근 가능한 입구를 확정할 수 없음; POI 근거 공중화장실 8.3m,POI,8.3,[지도/POI 1차판정] 공중화장실/시설 POI 근거리 확인 / [좌표품질:INTERNAL] 건물/시설 내부 편의시설이라 지도 좌표만으로 접근 가능한 입구를 확정할 수 없음; POI 근거 공중화장실 8.3m / 카카오=기장군공영주차장(1245.9m); POI=공중화장실(8.3m),35.2469030,129.2030800,,,,,,,public_toilet:1819,3106,,public_toilet:1819,2026-04-27T16:09:24.750772+00:00,POI_ONLY_RECHECK,POI,KAKAO_NEARBY_ONLY,기장군공영주차장,1245.9,MATCH_STRONG,공중화장실,8.3
facility:3208,facility,3208,기장군,월내우체국 1층,TOILET,KEEP,유지,INTERNAL,건물/시설 내부 편의시설이라 지도 좌표만으로 접근 가능한 입구를 확정할 수 없음; POI 근거 월내우체국 2.4m,POI,2.4,[지도/POI 1차판정] 공중화장실/시설 POI 근거리 확인 / [좌표품질:INTERNAL] 건물/시설 내부 편의시설이라 지도 좌표만으로 접근 가능한 입구를 확정할 수 없음; POI 근거 월내우체국 2.4m / 카카오=월내우체국(4.8m); POI=월내우체국(2.4m),35.3290840,129.2828010,,,,,,,public_toilet:1937,3208,,public_toilet:1937,2026-04-27T16:09:24.750772+00:00,CATEGORY_REVIEW,KAKAO,KAKAO_STRONG,월내우체국,4.8,MATCH_STRONG,월내우체국,2.4
facility:3268,facility,3268,기장군,월드컵빌리지,TOILET,KEEP,유지,INTERNAL,건물/시설 내부 편의시설이라 지도 좌표만으로 접근 가능한 입구를 확정할 수 없음; POI 근거 월드컵빌리지(버스정류장) 170.3m,POI,170.3,[지도/POI 1차판정] 카카오 지도에서 상위 시설/공원 근거리 확인 / [좌표품질:INTERNAL] 건물/시설 내부 편의시설이라 지도 좌표만으로 접근 가능한 입구를 확정할 수 없음; POI 근거 월드컵빌리지(버스정류장) 170.3m / 카카오=월드컵빌리지(14.0m); POI=월드컵빌리지(버스정류장)(170.3m),35.3015320,129.2413920,,,,,,,public_toilet:2007,3268,,public_toilet:2007,2026-04-27T16:09:24.750772+00:00,CATEGORY_REVIEW,KAKAO,KAKAO_STRONG,월드컵빌리지,14.0,MATCH_WEAK,월드컵빌리지(버스정류장),170.3
facility:3210,facility,3210,기장군,이천2(미역),TOILET,KEEP,유지,INTERNAL,건물/시설 내부 편의시설이라 지도 좌표만으로 접근 가능한 입구를 확정할 수 없음; POI 근거 공중화장실 8.9m,POI,8.9,[지도/POI 1차판정] 카카오 지도 근거 확인 / [좌표품질:INTERNAL] 건물/시설 내부 편의시설이라 지도 좌표만으로 접근 가능한 입구를 확정할 수 없음; POI 근거 공중화장실 8.9m / 카카오=이천해녀복지회관(10.8m); POI=공중화장실(8.9m),35.2646090,129.2400990,,,,,,,public_toilet:1939,3210,,public_toilet:1939,2026-04-27T16:09:24.750772+00:00,RENAME_REVIEW,KAKAO,KAKAO_STRONG,이천해녀복지회관,10.8,MATCH_STRONG,공중화장실,8.9
facility:3108,facility,3108,기장군,일광119안전센터,TOILET,KEEP,유지,INTERNAL,건물/시설 내부 편의시설이라 지도 좌표만으로 접근 가능한 입구를 확정할 수 없음; POI 근거 일광119안전센터 6.6m,POI,6.6,[지도/POI 1차판정] 공중화장실/시설 POI 근거리 확인 / [좌표품질:INTERNAL] 건물/시설 내부 편의시설이라 지도 좌표만으로 접근 가능한 입구를 확정할 수 없음; POI 근거 일광119안전센터 6.6m / 카카오=일광119안전센터(7.0m); POI=일광119안전센터(6.6m),35.2608070,129.2209610,,,,,,,public_toilet:1822,3108,,public_toilet:1822,2026-04-27T16:09:24.750772+00:00,CATEGORY_REVIEW,KAKAO,KAKAO_STRONG,일광119안전센터,7.0,MATCH_STRONG,일광119안전센터,6.6
facility:3090,facility,3090,기장군,일광우체국,TOILET,KEEP,유지,INTERNAL,건물/시설 내부 편의시설이라 지도 좌표만으로 접근 가능한 입구를 확정할 수 없음; POI 근거 일광우체국 2.0m,POI,2.0,[지도/POI 1차판정] 공중화장실/시설 POI 근거리 확인 / [좌표품질:INTERNAL] 건물/시설 내부 편의시설이라 지도 좌표만으로 접근 가능한 입구를 확정할 수 없음; POI 근거 일광우체국 2.0m / 카카오=일광우체국(0.5m); POI=일광우체국(2.0m),35.2643570,129.2335950,,,,,,,public_toilet:1801,3090,,public_toilet:1801,2026-04-27T16:09:24.750772+00:00,CATEGORY_REVIEW,KAKAO,KAKAO_STRONG,일광우체국,0.5,MATCH_STRONG,일광우체국,2.0
facility:3162,facility,3162,기장군,일광파출소,TOILET,KEEP,유지,INTERNAL,건물/시설 내부 편의시설이라 지도 좌표만으로 접근 가능한 입구를 확정할 수 없음; POI 근거 일광파출소 7.5m,POI,7.5,[지도/POI 1차판정] 공중화장실/시설 POI 근거리 확인 / [좌표품질:INTERNAL] 건물/시설 내부 편의시설이라 지도 좌표만으로 접근 가능한 입구를 확정할 수 없음; POI 근거 일광파출소 7.5m / 카카오=일광파출소(13.1m); POI=일광파출소(7.5m),35.2642620,129.2324420,,,,,,,public_toilet:1881,3162,,public_toilet:1881,2026-04-27T16:09:24.750772+00:00,CATEGORY_REVIEW,KAKAO,KAKAO_STRONG,일광파출소,13.1,MATCH_STRONG,일광파출소,7.5
facility:3266,facility,3266,기장군,장안(울산)휴게소,TOILET,KEEP,유지,INTERNAL,건물/시설 내부 편의시설이라 지도 좌표만으로 접근 가능한 입구를 확정할 수 없음; POI 근거 장안휴게소(울산방향) 33.7m,POI,33.7,[지도/POI 1차판정] 공중화장실/시설 POI 근거리 확인 / [좌표품질:INTERNAL] 건물/시설 내부 편의시설이라 지도 좌표만으로 접근 가능한 입구를 확정할 수 없음; POI 근거 장안휴게소(울산방향) 33.7m / 카카오=장안휴게소 울산방향(40.5m); POI=장안휴게소(울산방향)(33.7m),35.3814850,129.2488220,,,,,,,public_toilet:2003,3266,,public_toilet:2003,2026-04-27T16:09:24.750772+00:00,CATEGORY_REVIEW,KAKAO,KAKAO_STRONG,장안휴게소 울산방향,40.5,MATCH_STRONG,장안휴게소(울산방향),33.7
facility:3254,facility,3254,기장군,장안천야구장,TOILET,KEEP,유지,INTERNAL,건물/시설 내부 편의시설이라 지도 좌표만으로 접근 가능한 입구를 확정할 수 없음; POI 근거 장안천야구장 70.3m,POI,70.3,[지도/POI 1차판정] 공중화장실/시설 POI 근거리 확인 / [좌표품질:INTERNAL] 건물/시설 내부 편의시설이라 지도 좌표만으로 접근 가능한 입구를 확정할 수 없음; POI 근거 장안천야구장 70.3m / 카카오=장안천야구장(87.1m); POI=장안천야구장(70.3m),35.3319740,129.2790660,,,,,,,public_toilet:1989,3254,,public_toilet:1989,2026-04-27T16:09:24.750772+00:00,CATEGORY_REVIEW,KAKAO,KAKAO_STRONG,장안천야구장,87.1,MATCH_STRONG,장안천야구장,70.3
facility:3161,facility,3161,기장군,장안파출소,TOILET,KEEP,유지,INTERNAL,건물/시설 내부 편의시설이라 지도 좌표만으로 접근 가능한 입구를 확정할 수 없음; POI 근거 장안파출소 10.3m,POI,10.3,[지도/POI 1차판정] 공중화장실/시설 POI 근거리 확인 / [좌표품질:INTERNAL] 건물/시설 내부 편의시설이라 지도 좌표만으로 접근 가능한 입구를 확정할 수 없음; POI 근거 장안파출소 10.3m / 카카오=장안파출소(11.5m); POI=장안파출소(10.3m),35.3129770,129.2442700,,,,,,,public_toilet:1880,3161,,public_toilet:1880,2026-04-27T16:09:24.750772+00:00,CATEGORY_REVIEW,KAKAO,KAKAO_STRONG,장안파출소,11.5,MATCH_STRONG,장안파출소,10.3
facility:3232,facility,3232,기장군,정관도서관,TOILET,KEEP,유지,INTERNAL,건물/시설 내부 편의시설이라 지도 좌표만으로 접근 가능한 입구를 확정할 수 없음; POI 근거 정관도서관식당 20.2m,POI,20.2,[지도/POI 1차판정] 공중화장실/시설 POI 근거리 확인 / [좌표품질:INTERNAL] 건물/시설 내부 편의시설이라 지도 좌표만으로 접근 가능한 입구를 확정할 수 없음; POI 근거 정관도서관식당 20.2m / 카카오=정관도서관 식당(19.9m); POI=정관도서관식당(20.2m),35.3253533,129.1819399,,,,,,,public_toilet:1963,3232,,public_toilet:1963,2026-04-27T16:09:24.750772+00:00,CATEGORY_REVIEW,KAKAO,KAKAO_STRONG,정관도서관 식당,19.9,MATCH_STRONG,정관도서관식당,20.2
facility:3250,facility,3250,기장군,정관어린이도서관,TOILET,KEEP,유지,INTERNAL,건물/시설 내부 편의시설이라 지도 좌표만으로 접근 가능한 입구를 확정할 수 없음; POI 근거 정관어린이도서관 8.6m,POI,8.6,[지도/POI 1차판정] 카카오 지도 근거 확인 / [좌표품질:INTERNAL] 건물/시설 내부 편의시설이라 지도 좌표만으로 접근 가능한 입구를 확정할 수 없음; POI 근거 정관어린이도서관 8.6m / 카카오=좌광천정원 방문자센터(9.2m); POI=정관어린이도서관(8.6m),35.3238595,129.1775295,,,,,,,public_toilet:1983,3250,,public_toilet:1983,2026-04-27T16:09:24.750772+00:00,RENAME_REVIEW,KAKAO,KAKAO_MEDIUM,좌광천정원 방문자센터,9.2,MATCH_STRONG,정관어린이도서관,8.6
facility:3156,facility,3156,기장군,정관우체국,TOILET,KEEP,유지,INTERNAL,건물/시설 내부 편의시설이라 지도 좌표만으로 접근 가능한 입구를 확정할 수 없음; POI 근거 부산정관우체국 3.0m,POI,3.0,[지도/POI 1차판정] 공중화장실/시설 POI 근거리 확인 / [좌표품질:INTERNAL] 건물/시설 내부 편의시설이라 지도 좌표만으로 접근 가능한 입구를 확정할 수 없음; POI 근거 부산정관우체국 3.0m / 카카오=부산정관우체국(5.7m); POI=부산정관우체국(3.0m),35.3222190,129.1831640,,,,,,,public_toilet:1874,3156,,public_toilet:1874,2026-04-27T16:09:24.750772+00:00,CATEGORY_REVIEW,KAKAO,KAKAO_STRONG,부산정관우체국,5.7,MATCH_STRONG,부산정관우체국,3.0
facility:3246,facility,3246,기장군,정관읍교육행복센터,TOILET,KEEP,유지,INTERNAL,건물/시설 내부 편의시설이라 지도 좌표만으로 접근 가능한 입구를 확정할 수 없음; POI 근거 정관읍행정복지센터 1.2m,POI,1.2,[지도/POI 1차판정] 공중화장실/시설 POI 근거리 확인 / [좌표품질:INTERNAL] 건물/시설 내부 편의시설이라 지도 좌표만으로 접근 가능한 입구를 확정할 수 없음; POI 근거 정관읍행정복지센터 1.2m / 카카오=정관읍교육행복센터(44.8m); POI=정관읍행정복지센터(1.2m),35.3256240,129.1801170,,,,,,,public_toilet:1978,3246,,public_toilet:1978,2026-04-27T16:09:24.750772+00:00,CATEGORY_REVIEW,KAKAO,KAKAO_STRONG,정관읍교육행복센터,44.8,MATCH_STRONG,정관읍행정복지센터,1.2
facility:3117,facility,3117,기장군,정관읍복지회관,TOILET,KEEP,유지,INTERNAL,건물/시설 내부 편의시설이라 지도 좌표만으로 접근 가능한 입구를 확정할 수 없음; POI 근거 공중화장실 0.0m,POI,0.0,[지도/POI 1차판정] 공중화장실/시설 POI 근거리 확인 / [좌표품질:INTERNAL] 건물/시설 내부 편의시설이라 지도 좌표만으로 접근 가능한 입구를 확정할 수 없음; POI 근거 공중화장실 0.0m / 카카오=정관읍복지회관(9.8m); POI=공중화장실(0.0m),35.3591971,129.1409341,,,,,,,public_toilet:1833,3117,,public_toilet:1833,2026-04-27T16:09:24.750772+00:00,CATEGORY_REVIEW,KAKAO,KAKAO_STRONG,정관읍복지회관,9.8,MATCH_STRONG,공중화장실,0.0
facility:3220,facility,3220,기장군,정관읍행정복지센터,TOILET,KEEP,유지,INTERNAL,건물/시설 내부 편의시설이라 지도 좌표만으로 접근 가능한 입구를 확정할 수 없음; POI 근거 정관읍행정복지센터 1.2m,POI,1.2,[지도/POI 1차판정] 공중화장실/시설 POI 근거리 확인 / [좌표품질:INTERNAL] 건물/시설 내부 편의시설이라 지도 좌표만으로 접근 가능한 입구를 확정할 수 없음; POI 근거 정관읍행정복지센터 1.2m / 카카오=정관읍행정복지센터(26.9m); POI=정관읍행정복지센터(1.2m),35.3256240,129.1801170,,,,,,,public_toilet:1949,3220,,public_toilet:1949,2026-04-27T16:09:24.750772+00:00,CATEGORY_REVIEW,KAKAO,KAKAO_STRONG,정관읍행정복지센터,26.9,MATCH_STRONG,정관읍행정복지센터,1.2
facility:3238,facility,3238,기장군,정관지구대,TOILET,KEEP,유지,INTERNAL,건물/시설 내부 편의시설이라 지도 좌표만으로 접근 가능한 입구를 확정할 수 없음; POI 근거 정관지구대 16.0m,POI,16.0,[지도/POI 1차판정] 공중화장실/시설 POI 근거리 확인 / [좌표품질:INTERNAL] 건물/시설 내부 편의시설이라 지도 좌표만으로 접근 가능한 입구를 확정할 수 없음; POI 근거 정관지구대 16.0m / 카카오=정관지구대(12.5m); POI=정관지구대(16.0m),35.3252080,129.1788990,,,,,,,public_toilet:1969,3238,,public_toilet:1969,2026-04-27T16:09:24.750772+00:00,CATEGORY_REVIEW,KAKAO,KAKAO_STRONG,정관지구대,12.5,MATCH_STRONG,정관지구대,16.0
facility:3223,facility,3223,기장군,좌천시장마을2(주차장안),TOILET,KEEP,유지,INTERNAL,건물/시설 내부 편의시설이라 지도 좌표만으로 접근 가능한 입구를 확정할 수 없음; POI 근거 공중화장실 42.3m,POI,42.3,[지도/POI 1차판정] 카카오 지도 근거 확인 / [좌표품질:INTERNAL] 건물/시설 내부 편의시설이라 지도 좌표만으로 접근 가능한 입구를 확정할 수 없음; POI 근거 공중화장실 42.3m / 카카오=좌천재래시장 공영주차장(7.1m); POI=공중화장실(42.3m),35.3094300,129.2431590,,,,,,,public_toilet:1952,3223,,public_toilet:1952,2026-04-27T16:09:24.750772+00:00,RENAME_REVIEW,KAKAO,KAKAO_MEDIUM,좌천재래시장 공영주차장,7.1,MATCH_STRONG,공중화장실,42.3
facility:3258,facility,3258,기장군,철마노인대학(4층),TOILET,KEEP,유지,INTERNAL,건물/시설 내부 편의시설이라 지도 좌표만으로 접근 가능한 입구를 확정할 수 없음; POI 근거 공중화장실 15.1m,POI,15.1,[지도/POI 1차판정] 카카오 지도 근거 확인 / [좌표품질:INTERNAL] 건물/시설 내부 편의시설이라 지도 좌표만으로 접근 가능한 입구를 확정할 수 없음; POI 근거 공중화장실 15.1m / 카카오=철마탕(17.7m); POI=공중화장실(15.1m),35.2737198,129.1500558,,,,,,,public_toilet:1993,3258,,public_toilet:1993,2026-04-27T16:09:24.750772+00:00,RENAME_REVIEW,KAKAO,KAKAO_STRONG,철마탕,17.7,MATCH_STRONG,공중화장실,15.1
facility:3237,facility,3237,기장군,철마면행정복지센터,TOILET,KEEP,유지,INTERNAL,건물/시설 내부 편의시설이라 지도 좌표만으로 접근 가능한 입구를 확정할 수 없음; POI 근거 철마면행정복지센터 6.7m,POI,6.7,[지도/POI 1차판정] 공중화장실/시설 POI 근거리 확인 / [좌표품질:INTERNAL] 건물/시설 내부 편의시설이라 지도 좌표만으로 접근 가능한 입구를 확정할 수 없음; POI 근거 철마면행정복지센터 6.7m / 카카오=철마면행정복지센터(8.5m); POI=철마면행정복지센터(6.7m),35.2752721,129.1498118,,,,,,,public_toilet:1968,3237,,public_toilet:1968,2026-04-27T16:09:24.750772+00:00,CATEGORY_REVIEW,KAKAO,KAKAO_STRONG,철마면행정복지센터,8.5,MATCH_STRONG,철마면행정복지센터,6.7
facility:3169,facility,3169,기장군,철마면행정복지센터 별동,TOILET,KEEP,유지,INTERNAL,건물/시설 내부 편의시설이라 지도 좌표만으로 접근 가능한 입구를 확정할 수 없음; POI 근거 공중화장실 25.2m,POI,25.2,[지도/POI 1차판정] 공중화장실/시설 POI 근거리 확인 / [좌표품질:INTERNAL] 건물/시설 내부 편의시설이라 지도 좌표만으로 접근 가능한 입구를 확정할 수 없음; POI 근거 공중화장실 25.2m / 카카오=철마면행정복지센터(21.6m); POI=공중화장실(25.2m),35.2751551,129.1496162,,,,,,,public_toilet:1889,3169,,public_toilet:1889,2026-04-27T16:09:24.750772+00:00,CATEGORY_REVIEW,KAKAO,KAKAO_STRONG,철마면행정복지센터,21.6,MATCH_STRONG,공중화장실,25.2
facility:3141,facility,3141,기장군,철마우체국,TOILET,KEEP,유지,INTERNAL,건물/시설 내부 편의시설이라 지도 좌표만으로 접근 가능한 입구를 확정할 수 없음; POI 근거 철마우체국 4.7m,POI,4.7,[지도/POI 1차판정] 공중화장실/시설 POI 근거리 확인 / [좌표품질:INTERNAL] 건물/시설 내부 편의시설이라 지도 좌표만으로 접근 가능한 입구를 확정할 수 없음; POI 근거 철마우체국 4.7m / 카카오=부산철마우체국(7.9m); POI=철마우체국(4.7m),35.2749840,129.1489570,,,,,,,public_toilet:1858,3141,,public_toilet:1858,2026-04-27T16:09:24.750772+00:00,CATEGORY_REVIEW,KAKAO,KAKAO_STRONG,부산철마우체국,7.9,MATCH_STRONG,철마우체국,4.7
facility:3222,facility,3222,기장군,철마체육시설,TOILET,KEEP,유지,INTERNAL,건물/시설 내부 편의시설이라 지도 좌표만으로 접근 가능한 입구를 확정할 수 없음; POI 근거 철마체육시설축구장 5.0m,POI,5.0,[지도/POI 1차판정] 공중화장실/시설 POI 근거리 확인 / [좌표품질:INTERNAL] 건물/시설 내부 편의시설이라 지도 좌표만으로 접근 가능한 입구를 확정할 수 없음; POI 근거 철마체육시설축구장 5.0m / 카카오=철마체육시설(11.2m); POI=철마체육시설축구장(5.0m),35.2727169,129.1556913,,,,,,,public_toilet:1951,3222,,public_toilet:1951,2026-04-27T16:09:24.750772+00:00,CATEGORY_REVIEW,KAKAO,KAKAO_STRONG,철마체육시설,11.2,MATCH_STRONG,철마체육시설축구장,5.0
facility:3227,facility,3227,기장군,철마파출소,TOILET,KEEP,유지,INTERNAL,건물/시설 내부 편의시설이라 지도 좌표만으로 접근 가능한 입구를 확정할 수 없음; POI 근거 철마파출소 5.2m,POI,5.2,[지도/POI 1차판정] 공중화장실/시설 POI 근거리 확인 / [좌표품질:INTERNAL] 건물/시설 내부 편의시설이라 지도 좌표만으로 접근 가능한 입구를 확정할 수 없음; POI 근거 철마파출소 5.2m / 카카오=철마파출소(7.6m); POI=철마파출소(5.2m),35.2750020,129.1487040,,,,,,,public_toilet:1957,3227,,public_toilet:1957,2026-04-27T16:09:24.750772+00:00,CATEGORY_REVIEW,KAKAO,KAKAO_STRONG,철마파출소,7.6,MATCH_STRONG,철마파출소,5.2
facility:3205,facility,3205,기장군,한국수산자원공단,TOILET,KEEP,유지,INTERNAL,건물/시설 내부 편의시설이라 지도 좌표만으로 접근 가능한 입구를 확정할 수 없음; POI 근거 한국수산자원공단 15.0m,POI,15.0,[지도/POI 1차판정] 공중화장실/시설 POI 근거리 확인 / [좌표품질:INTERNAL] 건물/시설 내부 편의시설이라 지도 좌표만으로 접근 가능한 입구를 확정할 수 없음; POI 근거 한국수산자원공단 15.0m / 카카오=한국수산자원공단(47.9m); POI=한국수산자원공단(15.0m),35.2697080,129.2429040,,,,,,,public_toilet:1934,3205,,public_toilet:1934,2026-04-27T16:09:24.750772+00:00,CATEGORY_REVIEW,KAKAO,KAKAO_STRONG,한국수산자원공단,47.9,MATCH_STRONG,한국수산자원공단,15.0
facility:2374,facility,2374,남구,(주)용호시장,TOILET,KEEP,유지,INTERNAL,건물/시설 내부 편의시설이라 지도 좌표만으로 접근 가능한 입구를 확정할 수 없음; POI 근거 용호시장 1.1m,POI,1.1,[지도/POI 1차판정] 공중화장실/시설 POI 근거리 확인 / [좌표품질:INTERNAL] 건물/시설 내부 편의시설이라 지도 좌표만으로 접근 가능한 입구를 확정할 수 없음; POI 근거 용호시장 1.1m / 카카오=용호시장(19.5m); POI=용호시장(1.1m),35.1150190,129.1127770,,,,,,,public_toilet:673,2374,,public_toilet:673,2026-04-27T16:09:24.750772+00:00,CATEGORY_REVIEW,KAKAO,KAKAO_STRONG,용호시장,19.5,MATCH_STRONG,용호시장,1.1
facility:2366,facility,2366,남구,감만119안전센터,TOILET,KEEP,유지,INTERNAL,건물/시설 내부 편의시설이라 지도 좌표만으로 접근 가능한 입구를 확정할 수 없음; POI 근거 공중화장실 27.3m,POI,27.3,[지도/POI 1차판정] 공중화장실/시설 POI 근거리 확인 / [좌표품질:INTERNAL] 건물/시설 내부 편의시설이라 지도 좌표만으로 접근 가능한 입구를 확정할 수 없음; POI 근거 공중화장실 27.3m / 카카오=감만119안전센터(6284.0m); POI=공중화장실(27.3m),35.1731100,129.0942100,,,,,,,public_toilet:660,2366,,public_toilet:660,2026-04-27T16:09:24.750772+00:00,POI_ONLY_RECHECK,POI,KAKAO_WEAK,감만119안전센터,6284.0,MATCH_MEDIUM,공중화장실,27.3
facility:2383,facility,2383,남구,감만1동행정복지센터,TOILET,KEEP,유지,INTERNAL,건물/시설 내부 편의시설이라 지도 좌표만으로 접근 가능한 입구를 확정할 수 없음; POI 근거 감만1동행정복지센터 10.8m,POI,10.8,[지도/POI 1차판정] 공중화장실/시설 POI 근거리 확인 / [좌표품질:INTERNAL] 건물/시설 내부 편의시설이라 지도 좌표만으로 접근 가능한 입구를 확정할 수 없음; POI 근거 감만1동행정복지센터 10.8m / 카카오=감만1동행정복지센터(10.0m); POI=감만1동행정복지센터(10.8m),35.1169200,129.0807100,,,,,,,public_toilet:684,2383,,public_toilet:684,2026-04-27T16:09:24.750772+00:00,CATEGORY_REVIEW,KAKAO,KAKAO_STRONG,감만1동행정복지센터,10.0,MATCH_STRONG,감만1동행정복지센터,10.8
facility:2378,facility,2378,남구,감만2동행정복지센터,TOILET,KEEP,유지,INTERNAL,건물/시설 내부 편의시설이라 지도 좌표만으로 접근 가능한 입구를 확정할 수 없음; POI 근거 감만2동행정복지센터 13.3m,POI,13.3,[지도/POI 1차판정] 공중화장실/시설 POI 근거리 확인 / [좌표품질:INTERNAL] 건물/시설 내부 편의시설이라 지도 좌표만으로 접근 가능한 입구를 확정할 수 없음; POI 근거 감만2동행정복지센터 13.3m / 카카오=감만2동행정복지센터(12.6m); POI=감만2동행정복지센터(13.3m),35.1226400,129.0845600,,,,,,,public_toilet:679,2378,,public_toilet:679,2026-04-27T16:09:24.750772+00:00,CATEGORY_REVIEW,KAKAO,KAKAO_STRONG,감만2동행정복지센터,12.6,MATCH_STRONG,감만2동행정복지센터,13.3
facility:2430,facility,2430,남구,감만종합사회복지관,TOILET,KEEP,유지,INTERNAL,건물/시설 내부 편의시설이라 지도 좌표만으로 접근 가능한 입구를 확정할 수 없음; POI 근거 감만종합사회복지관 17.5m,POI,17.5,[지도/POI 1차판정] 공중화장실/시설 POI 근거리 확인 / [좌표품질:INTERNAL] 건물/시설 내부 편의시설이라 지도 좌표만으로 접근 가능한 입구를 확정할 수 없음; POI 근거 감만종합사회복지관 17.5m / 카카오=감만종합사회복지관(59.5m); POI=감만종합사회복지관(17.5m),35.1184700,129.0815900,,,,,,,public_toilet:764,2430,,public_toilet:764,2026-04-27T16:09:24.750772+00:00,CATEGORY_REVIEW,KAKAO,KAKAO_STRONG,감만종합사회복지관,59.5,MATCH_STRONG,감만종합사회복지관,17.5
facility:2434,facility,2434,남구,감만파출소 공중화장실,TOILET,KEEP,유지,INTERNAL,건물/시설 내부 편의시설이라 지도 좌표만으로 접근 가능한 입구를 확정할 수 없음; POI 근거 공중화장실 20.7m,POI,20.7,[지도/POI 1차판정] 카카오 지도 근거 확인 / [좌표품질:INTERNAL] 건물/시설 내부 편의시설이라 지도 좌표만으로 접근 가능한 입구를 확정할 수 없음; POI 근거 공중화장실 20.7m / 카카오=감만파출소(21.5m); POI=공중화장실(20.7m),35.1183900,129.0807700,,,,,,,public_toilet:768,2434,,public_toilet:768,2026-04-27T16:09:24.750772+00:00,RENAME_REVIEW,KAKAO,KAKAO_MEDIUM,감만파출소,21.5,MATCH_STRONG,공중화장실,20.7
facility:2397,facility,2397,남구,남구 국민체육센터,TOILET,KEEP,유지,INTERNAL,건물/시설 내부 편의시설이라 지도 좌표만으로 접근 가능한 입구를 확정할 수 없음; POI 근거 남구국민체육센터 12.7m,POI,12.7,[지도/POI 1차판정] 공중화장실/시설 POI 근거리 확인 / [좌표품질:INTERNAL] 건물/시설 내부 편의시설이라 지도 좌표만으로 접근 가능한 입구를 확정할 수 없음; POI 근거 남구국민체육센터 12.7m / 카카오=남구국민체육센터 1관(31.0m); POI=남구국민체육센터(12.7m),35.1040000,129.1083700,,,,,,,public_toilet:708,2397,,public_toilet:708,2026-04-27T16:09:24.750772+00:00,CATEGORY_REVIEW,KAKAO,KAKAO_STRONG,남구국민체육센터 1관,31.0,MATCH_STRONG,남구국민체육센터,12.7
facility:2468,facility,2468,남구,남구노인복지관,TOILET,KEEP,유지,INTERNAL,건물/시설 내부 편의시설이라 지도 좌표만으로 접근 가능한 입구를 확정할 수 없음; POI 근거 남구노인복지관 18.4m,POI,18.4,[지도/POI 1차판정] 공중화장실/시설 POI 근거리 확인 / [좌표품질:INTERNAL] 건물/시설 내부 편의시설이라 지도 좌표만으로 접근 가능한 입구를 확정할 수 없음; POI 근거 남구노인복지관 18.4m / 카카오=남구노인복지관(21.9m); POI=남구노인복지관(18.4m),35.1363400,129.0932400,,,,,,,public_toilet:842,2468,,public_toilet:842,2026-04-27T16:09:24.750772+00:00,CATEGORY_REVIEW,KAKAO,KAKAO_STRONG,남구노인복지관,21.9,MATCH_STRONG,남구노인복지관,18.4
facility:2456,facility,2456,남구,남구보건소,TOILET,KEEP,유지,INTERNAL,건물/시설 내부 편의시설이라 지도 좌표만으로 접근 가능한 입구를 확정할 수 없음; POI 근거 남구보건소 14.8m,POI,14.8,[지도/POI 1차판정] 공중화장실/시설 POI 근거리 확인 / [좌표품질:INTERNAL] 건물/시설 내부 편의시설이라 지도 좌표만으로 접근 가능한 입구를 확정할 수 없음; POI 근거 남구보건소 14.8m / 카카오=부산광역시남구보건소(14.0m); POI=남구보건소(14.8m),35.1361900,129.0850200,,,,,,,public_toilet:809,2456,,public_toilet:809,2026-04-27T16:09:24.750772+00:00,CATEGORY_REVIEW,KAKAO,KAKAO_STRONG,부산광역시남구보건소,14.0,MATCH_STRONG,남구보건소,14.8
facility:2464,facility,2464,남구,남구실내빙상장,TOILET,KEEP,유지,INTERNAL,건물/시설 내부 편의시설이라 지도 좌표만으로 접근 가능한 입구를 확정할 수 없음; POI 근거 공중화장실 21.9m,POI,21.9,[지도/POI 1차판정] 공중화장실/시설 POI 근거리 확인 / [좌표품질:INTERNAL] 건물/시설 내부 편의시설이라 지도 좌표만으로 접근 가능한 입구를 확정할 수 없음; POI 근거 공중화장실 21.9m / 카카오=부산남구실내빙상장(83.2m); POI=공중화장실(21.9m),35.1034900,129.1105000,,,,,,,public_toilet:830,2464,,public_toilet:830,2026-04-27T16:09:24.750772+00:00,CATEGORY_REVIEW,KAKAO,KAKAO_STRONG,부산남구실내빙상장,83.2,MATCH_STRONG,공중화장실,21.9
facility:2408,facility,2408,남구,남구종합사회복지관,TOILET,KEEP,유지,INTERNAL,건물/시설 내부 편의시설이라 지도 좌표만으로 접근 가능한 입구를 확정할 수 없음; POI 근거 (부산)남구종합사회복지관 45.5m,POI,45.5,[지도/POI 1차판정] 공중화장실/시설 POI 근거리 확인 / [좌표품질:INTERNAL] 건물/시설 내부 편의시설이라 지도 좌표만으로 접근 가능한 입구를 확정할 수 없음; POI 근거 (부산)남구종합사회복지관 45.5m / 카카오=남구종합사회복지관 주차장(20.7m); POI=(부산)남구종합사회복지관(45.5m),35.1274600,129.0744800,,,,,,,public_toilet:730,2408,,public_toilet:730,2026-04-27T16:09:24.750772+00:00,CATEGORY_REVIEW,KAKAO,KAKAO_STRONG,남구종합사회복지관 주차장,20.7,MATCH_STRONG,(부산)남구종합사회복지관,45.5
facility:2362,facility,2362,남구,남부교육지원청,TOILET,KEEP,유지,INTERNAL,건물/시설 내부 편의시설이라 지도 좌표만으로 접근 가능한 입구를 확정할 수 없음; POI 근거 남부교육지원청 16.7m,POI,16.7,[지도/POI 1차판정] 공중화장실/시설 POI 근거리 확인 / [좌표품질:INTERNAL] 건물/시설 내부 편의시설이라 지도 좌표만으로 접근 가능한 입구를 확정할 수 없음; POI 근거 남부교육지원청 16.7m / 카카오=부산광역시남부교육지원청(16.9m); POI=남부교육지원청(16.7m),35.1363800,129.0854900,,,,,,,public_toilet:654,2362,,public_toilet:654,2026-04-27T16:09:24.750772+00:00,CATEGORY_REVIEW,KAKAO,KAKAO_STRONG,부산광역시남부교육지원청,16.9,MATCH_STRONG,남부교육지원청,16.7
facility:2440,facility,2440,남구,남부교육지원청,TOILET,KEEP,유지,INTERNAL,건물/시설 내부 편의시설이라 지도 좌표만으로 접근 가능한 입구를 확정할 수 없음; POI 근거 남부교육지원청 9.2m,POI,9.2,[지도/POI 1차판정] 공중화장실/시설 POI 근거리 확인 / [좌표품질:INTERNAL] 건물/시설 내부 편의시설이라 지도 좌표만으로 접근 가능한 입구를 확정할 수 없음; POI 근거 남부교육지원청 9.2m / 카카오=부산광역시남부교육지원청(7.7m); POI=남부교육지원청(9.2m),35.1363000,129.0854600,,,,,,,public_toilet:785,2440,,public_toilet:785,2026-04-27T16:09:24.750772+00:00,CATEGORY_REVIEW,KAKAO,KAKAO_STRONG,부산광역시남부교육지원청,7.7,MATCH_STRONG,남부교육지원청,9.2
facility:2463,facility,2463,남구,남부운전면허시험장 기능장,TOILET,KEEP,유지,INTERNAL,건물/시설 내부 편의시설이라 지도 좌표만으로 접근 가능한 입구를 확정할 수 없음; POI 근거 부산남부운전면허시험장 92.7m,POI,92.7,[지도/POI 1차판정] 카카오 지도 근거 확인 / [좌표품질:INTERNAL] 건물/시설 내부 편의시설이라 지도 좌표만으로 접근 가능한 입구를 확정할 수 없음; POI 근거 부산남부운전면허시험장 92.7m / 카카오=한국도로교통공단 부산남부운전면허시험장(83.5m); POI=부산남부운전면허시험장(92.7m),35.1277000,129.1056500,,,,,,,public_toilet:829,2463,,public_toilet:829,2026-04-27T16:09:24.750772+00:00,RENAME_REVIEW,KAKAO,KAKAO_MEDIUM,한국도로교통공단 부산남부운전면허시험장,83.5,MATCH_MEDIUM,부산남부운전면허시험장,92.7
facility:2394,facility,2394,남구,남부운전면허시험장 별관,TOILET,KEEP,유지,INTERNAL,건물/시설 내부 편의시설이라 지도 좌표만으로 접근 가능한 입구를 확정할 수 없음; POI 근거 부산남부운전면허시험장 92.7m,POI,92.7,[지도/POI 1차판정] 카카오 지도 근거 확인 / [좌표품질:INTERNAL] 건물/시설 내부 편의시설이라 지도 좌표만으로 접근 가능한 입구를 확정할 수 없음; POI 근거 부산남부운전면허시험장 92.7m / 카카오=한국도로교통공단 부산남부운전면허시험장(83.5m); POI=부산남부운전면허시험장(92.7m),35.1277000,129.1056500,,,,,,,public_toilet:702,2394,,public_toilet:702,2026-04-27T16:09:24.750772+00:00,RENAME_REVIEW,KAKAO,KAKAO_MEDIUM,한국도로교통공단 부산남부운전면허시험장,83.5,MATCH_MEDIUM,부산남부운전면허시험장,92.7
facility:2365,facility,2365,남구,남부운전면허시험장 본관,TOILET,KEEP,유지,INTERNAL,건물/시설 내부 편의시설이라 지도 좌표만으로 접근 가능한 입구를 확정할 수 없음; POI 근거 부산남부운전면허시험장 92.7m,POI,92.7,[지도/POI 1차판정] 카카오 지도 근거 확인 / [좌표품질:INTERNAL] 건물/시설 내부 편의시설이라 지도 좌표만으로 접근 가능한 입구를 확정할 수 없음; POI 근거 부산남부운전면허시험장 92.7m / 카카오=한국도로교통공단 부산남부운전면허시험장(83.5m); POI=부산남부운전면허시험장(92.7m),35.1277000,129.1056500,,,,,,,public_toilet:659,2365,,public_toilet:659,2026-04-27T16:09:24.750772+00:00,RENAME_REVIEW,KAKAO,KAKAO_MEDIUM,한국도로교통공단 부산남부운전면허시험장,83.5,MATCH_MEDIUM,부산남부운전면허시험장,92.7
facility:2390,facility,2390,남구,대동골문화센터 2층,TOILET,KEEP,유지,INTERNAL,건물/시설 내부 편의시설이라 지도 좌표만으로 접근 가능한 입구를 확정할 수 없음; POI 근거 대동골문화센터 3.1m,POI,3.1,[지도/POI 1차판정] 공중화장실/시설 POI 근거리 확인 / [좌표품질:INTERNAL] 건물/시설 내부 편의시설이라 지도 좌표만으로 접근 가능한 입구를 확정할 수 없음; POI 근거 대동골문화센터 3.1m / 카카오=대동골문화센터(3.2m); POI=대동골문화센터(3.1m),35.1524300,129.0889900,,,,,,,public_toilet:696,2390,,public_toilet:696,2026-04-27T16:09:24.750772+00:00,CATEGORY_REVIEW,KAKAO,KAKAO_STRONG,대동골문화센터,3.2,MATCH_STRONG,대동골문화센터,3.1
facility:2392,facility,2392,남구,대동골문화센터 3층,TOILET,KEEP,유지,INTERNAL,건물/시설 내부 편의시설이라 지도 좌표만으로 접근 가능한 입구를 확정할 수 없음; POI 근거 대동골문화센터 3.1m,POI,3.1,[지도/POI 1차판정] 카카오 지도 근거 확인 / [좌표품질:INTERNAL] 건물/시설 내부 편의시설이라 지도 좌표만으로 접근 가능한 입구를 확정할 수 없음; POI 근거 대동골문화센터 3.1m / 카카오=대동골문화센터작은도서관(2.8m); POI=대동골문화센터(3.1m),35.1524300,129.0889900,,,,,,,public_toilet:698,2392,,public_toilet:698,2026-04-27T16:09:24.750772+00:00,RENAME_REVIEW,KAKAO,KAKAO_STRONG,대동골문화센터작은도서관,2.8,MATCH_STRONG,대동골문화센터,3.1
facility:2367,facility,2367,남구,대연119안전센터,TOILET,KEEP,유지,INTERNAL,건물/시설 내부 편의시설이라 지도 좌표만으로 접근 가능한 입구를 확정할 수 없음; POI 근거 대연119안전센터 15.7m,POI,15.7,[지도/POI 1차판정] 공중화장실/시설 POI 근거리 확인 / [좌표품질:INTERNAL] 건물/시설 내부 편의시설이라 지도 좌표만으로 접근 가능한 입구를 확정할 수 없음; POI 근거 대연119안전센터 15.7m / 카카오=대연119안전센터(19.7m); POI=대연119안전센터(15.7m),35.1363800,129.0970900,,,,,,,public_toilet:663,2367,,public_toilet:663,2026-04-27T16:09:24.750772+00:00,CATEGORY_REVIEW,KAKAO,KAKAO_STRONG,대연119안전센터,19.7,MATCH_STRONG,대연119안전센터,15.7
facility:2373,facility,2373,남구,대연1동행정복지센터,TOILET,KEEP,유지,INTERNAL,건물/시설 내부 편의시설이라 지도 좌표만으로 접근 가능한 입구를 확정할 수 없음; POI 근거 대연1동행정복지센터 21.0m,POI,21.0,[지도/POI 1차판정] 공중화장실/시설 POI 근거리 확인 / [좌표품질:INTERNAL] 건물/시설 내부 편의시설이라 지도 좌표만으로 접근 가능한 입구를 확정할 수 없음; POI 근거 대연1동행정복지센터 21.0m / 카카오=대연1동행정복지센터(29.0m); POI=대연1동행정복지센터(21.0m),35.1330800,129.0916100,,,,,,,public_toilet:672,2373,,public_toilet:672,2026-04-27T16:09:24.750772+00:00,CATEGORY_REVIEW,KAKAO,KAKAO_STRONG,대연1동행정복지센터,29.0,MATCH_STRONG,대연1동행정복지센터,21.0
facility:2446,facility,2446,남구,대연1치안센터,TOILET,KEEP,유지,INTERNAL,건물/시설 내부 편의시설이라 지도 좌표만으로 접근 가능한 입구를 확정할 수 없음; POI 근거 대연1치안센터 9.3m,POI,9.3,[지도/POI 1차판정] 공중화장실/시설 POI 근거리 확인 / [좌표품질:INTERNAL] 건물/시설 내부 편의시설이라 지도 좌표만으로 접근 가능한 입구를 확정할 수 없음; POI 근거 대연1치안센터 9.3m / 카카오=대연1치안센터(10.1m); POI=대연1치안센터(9.3m),35.1341100,129.0955500,,,,,,,public_toilet:793,2446,,public_toilet:793,2026-04-27T16:09:24.750772+00:00,CATEGORY_REVIEW,KAKAO,KAKAO_STRONG,대연1치안센터,10.1,MATCH_STRONG,대연1치안센터,9.3
facility:2405,facility,2405,남구,대연3동행정복지센터,TOILET,KEEP,유지,INTERNAL,건물/시설 내부 편의시설이라 지도 좌표만으로 접근 가능한 입구를 확정할 수 없음; POI 근거 대연3동행정복지센터 40.4m,POI,40.4,[지도/POI 1차판정] 공중화장실/시설 POI 근거리 확인 / [좌표품질:INTERNAL] 건물/시설 내부 편의시설이라 지도 좌표만으로 접근 가능한 입구를 확정할 수 없음; POI 근거 대연3동행정복지센터 40.4m / 카카오=대연3동행정복지센터(36.1m); POI=대연3동행정복지센터(40.4m),35.1400900,129.1039700,,,,,,,public_toilet:721,2405,,public_toilet:721,2026-04-27T16:09:24.750772+00:00,CATEGORY_REVIEW,KAKAO,KAKAO_STRONG,대연3동행정복지센터,36.1,MATCH_STRONG,대연3동행정복지센터,40.4
facility:2355,facility,2355,남구,대연4동행정복지센터,TOILET,KEEP,유지,INTERNAL,건물/시설 내부 편의시설이라 지도 좌표만으로 접근 가능한 입구를 확정할 수 없음; POI 근거 대연4동행정복지센터 24.3m,POI,24.3,[지도/POI 1차판정] 공중화장실/시설 POI 근거리 확인 / [좌표품질:INTERNAL] 건물/시설 내부 편의시설이라 지도 좌표만으로 접근 가능한 입구를 확정할 수 없음; POI 근거 대연4동행정복지센터 24.3m / 카카오=대연4동행정복지센터(25.5m); POI=대연4동행정복지센터(24.3m),35.1300200,129.0913000,,,,,,,public_toilet:641,2355,,public_toilet:641,2026-04-27T16:09:24.750772+00:00,CATEGORY_REVIEW,KAKAO,KAKAO_STRONG,대연4동행정복지센터,25.5,MATCH_STRONG,대연4동행정복지센터,24.3
facility:2356,facility,2356,남구,대연4치안센터,TOILET,KEEP,유지,INTERNAL,건물/시설 내부 편의시설이라 지도 좌표만으로 접근 가능한 입구를 확정할 수 없음; POI 근거 대연4치안센터 72.7m,POI,72.7,[지도/POI 1차판정] 공중화장실/시설 POI 근거리 확인 / [좌표품질:INTERNAL] 건물/시설 내부 편의시설이라 지도 좌표만으로 접근 가능한 입구를 확정할 수 없음; POI 근거 대연4치안센터 72.7m / 카카오=대연4치안센터(69.0m); POI=대연4치안센터(72.7m),35.1297200,129.0936800,,,,,,,public_toilet:642,2356,,public_toilet:642,2026-04-27T16:09:24.750772+00:00,CATEGORY_REVIEW,KAKAO,KAKAO_STRONG,대연4치안센터,69.0,MATCH_STRONG,대연4치안센터,72.7
facility:2482,facility,2482,남구,대연5동 체육공원,TOILET,KEEP,유지,INTERNAL,건물/시설 내부 편의시설이라 지도 좌표만으로 접근 가능한 입구를 확정할 수 없음; POI 근거 공중화장실 96.8m,POI,96.8,[지도/POI 1차판정] 공중화장실/시설 POI 근거리 확인 / [좌표품질:INTERNAL] 건물/시설 내부 편의시설이라 지도 좌표만으로 접근 가능한 입구를 확정할 수 없음; POI 근거 공중화장실 96.8m / 카카오=상부체육공원(3036.6m); POI=공중화장실(96.8m),35.1409240,129.0868280,,,,,,,public_toilet:869,2482,,public_toilet:869,2026-04-27T16:09:24.750772+00:00,POI_ONLY_RECHECK,POI,KAKAO_REVIEW,상부체육공원,3036.6,MATCH_MEDIUM,공중화장실,96.8
facility:2399,facility,2399,남구,대연5동행정복지센터,TOILET,KEEP,유지,INTERNAL,건물/시설 내부 편의시설이라 지도 좌표만으로 접근 가능한 입구를 확정할 수 없음; POI 근거 대연5동행정복지센터 22.7m,POI,22.7,[지도/POI 1차판정] 공중화장실/시설 POI 근거리 확인 / [좌표품질:INTERNAL] 건물/시설 내부 편의시설이라 지도 좌표만으로 접근 가능한 입구를 확정할 수 없음; POI 근거 대연5동행정복지센터 22.7m / 카카오=대연5동행정복지센터(21.8m); POI=대연5동행정복지센터(22.7m),35.1386600,129.0901500,,,,,,,public_toilet:712,2399,,public_toilet:712,2026-04-27T16:09:24.750772+00:00,CATEGORY_REVIEW,KAKAO,KAKAO_STRONG,대연5동행정복지센터,21.8,MATCH_STRONG,대연5동행정복지센터,22.7
facility:2412,facility,2412,남구,대연6동행정복지센터,TOILET,KEEP,유지,INTERNAL,건물/시설 내부 편의시설이라 지도 좌표만으로 접근 가능한 입구를 확정할 수 없음; POI 근거 대연6동행정복지센터 14.5m,POI,14.5,[지도/POI 1차판정] 공중화장실/시설 POI 근거리 확인 / [좌표품질:INTERNAL] 건물/시설 내부 편의시설이라 지도 좌표만으로 접근 가능한 입구를 확정할 수 없음; POI 근거 대연6동행정복지센터 14.5m / 카카오=대연6동행정복지센터(17.3m); POI=대연6동행정복지센터(14.5m),35.1374500,129.0832000,,,,,,,public_toilet:738,2412,,public_toilet:738,2026-04-27T16:09:24.750772+00:00,CATEGORY_REVIEW,KAKAO,KAKAO_STRONG,대연6동행정복지센터,17.3,MATCH_STRONG,대연6동행정복지센터,14.5
facility:2417,facility,2417,남구,대연수목전시원 화장실,TOILET,KEEP,유지,INTERNAL,건물/시설 내부 편의시설이라 지도 좌표만으로 접근 가능한 입구를 확정할 수 없음; POI 근거 기와집입구 25.3m,POI,25.3,[지도/POI 1차판정] 공중화장실/시설 POI 근거리 확인 / [좌표품질:INTERNAL] 건물/시설 내부 편의시설이라 지도 좌표만으로 접근 가능한 입구를 확정할 수 없음; POI 근거 기와집입구 25.3m / 카카오=대연수목전시원 아열대식물체험관(95.5m); POI=기와집입구(25.3m),35.1250000,129.0980000,,,,,,,public_toilet:747,2417,,public_toilet:747,2026-04-27T16:09:24.750772+00:00,POI_ONLY_CATEGORY_RECHECK,POI,KAKAO_WEAK,대연수목전시원 아열대식물체험관,95.5,MATCH_MEDIUM,기와집입구,25.3
facility:2443,facility,2443,남구,대연지구대 공중화장실,TOILET,KEEP,유지,INTERNAL,건물/시설 내부 편의시설이라 지도 좌표만으로 접근 가능한 입구를 확정할 수 없음; POI 근거 공중화장실 29.9m,POI,29.9,[지도/POI 1차판정] 카카오 지도 근거 확인 / [좌표품질:INTERNAL] 건물/시설 내부 편의시설이라 지도 좌표만으로 접근 가능한 입구를 확정할 수 없음; POI 근거 공중화장실 29.9m / 카카오=대연지구대(30.0m); POI=공중화장실(29.9m),35.1380900,129.1018600,,,,,,,public_toilet:788,2443,,public_toilet:788,2026-04-27T16:09:24.750772+00:00,RENAME_REVIEW,KAKAO,KAKAO_MEDIUM,대연지구대,30.0,MATCH_STRONG,공중화장실,29.9
facility:2442,facility,2442,남구,못골파출소 공중화장실,TOILET,KEEP,유지,INTERNAL,건물/시설 내부 편의시설이라 지도 좌표만으로 접근 가능한 입구를 확정할 수 없음; POI 근거 공중화장실 5.3m,POI,5.3,[지도/POI 1차판정] 카카오 지도 근거 확인 / [좌표품질:INTERNAL] 건물/시설 내부 편의시설이라 지도 좌표만으로 접근 가능한 입구를 확정할 수 없음; POI 근거 공중화장실 5.3m / 카카오=못골파출소(2.5m); POI=공중화장실(5.3m),35.1398000,129.0900400,,,,,,,public_toilet:787,2442,,public_toilet:787,2026-04-27T16:09:24.750772+00:00,RENAME_REVIEW,KAKAO,KAKAO_MEDIUM,못골파출소,2.5,MATCH_STRONG,공중화장실,5.3
facility:2411,facility,2411,남구,문현1동 체육공원,TOILET,KEEP,유지,INTERNAL,건물/시설 내부 편의시설이라 지도 좌표만으로 접근 가능한 입구를 확정할 수 없음; POI 근거 공중화장실 12.9m,POI,12.9,[지도/POI 1차판정] 공중화장실/시설 POI 근거리 확인 / [좌표품질:INTERNAL] 건물/시설 내부 편의시설이라 지도 좌표만으로 접근 가능한 입구를 확정할 수 없음; POI 근거 공중화장실 12.9m / 카카오=만리산체육공원(2546.4m); POI=공중화장실(12.9m),35.1471240,129.0807700,,,,,,,public_toilet:736,2411,,public_toilet:736,2026-04-27T16:09:24.750772+00:00,POI_ONLY_RECHECK,POI,KAKAO_NEARBY_ONLY,만리산체육공원,2546.4,MATCH_STRONG,공중화장실,12.9
facility:2398,facility,2398,남구,문현1동 행정복지센터,TOILET,KEEP,유지,INTERNAL,건물/시설 내부 편의시설이라 지도 좌표만으로 접근 가능한 입구를 확정할 수 없음; POI 근거 문현1동행정복지센터 16.1m,POI,16.1,[지도/POI 1차판정] 공중화장실/시설 POI 근거리 확인 / [좌표품질:INTERNAL] 건물/시설 내부 편의시설이라 지도 좌표만으로 접근 가능한 입구를 확정할 수 없음; POI 근거 문현1동행정복지센터 16.1m / 카카오=문현1동행정복지센터(15.9m); POI=문현1동행정복지센터(16.1m),35.1426500,129.0714400,,,,,,,public_toilet:710,2398,,public_toilet:710,2026-04-27T16:09:24.750772+00:00,CATEGORY_REVIEW,KAKAO,KAKAO_STRONG,문현1동행정복지센터,15.9,MATCH_STRONG,문현1동행정복지센터,16.1
facility:2437,facility,2437,남구,문현2동행정복지센터,TOILET,KEEP,유지,INTERNAL,건물/시설 내부 편의시설이라 지도 좌표만으로 접근 가능한 입구를 확정할 수 없음; POI 근거 문현2동행정복지센터 26.8m,POI,26.8,[지도/POI 1차판정] 공중화장실/시설 POI 근거리 확인 / [좌표품질:INTERNAL] 건물/시설 내부 편의시설이라 지도 좌표만으로 접근 가능한 입구를 확정할 수 없음; POI 근거 문현2동행정복지센터 26.8m / 카카오=문현2동행정복지센터(26.2m); POI=문현2동행정복지센터(26.8m),35.1455100,129.0686400,,,,,,,public_toilet:775,2437,,public_toilet:775,2026-04-27T16:09:24.750772+00:00,CATEGORY_REVIEW,KAKAO,KAKAO_STRONG,문현2동행정복지센터,26.2,MATCH_STRONG,문현2동행정복지센터,26.8
facility:2426,facility,2426,남구,문현2치안센터,TOILET,KEEP,유지,INTERNAL,건물/시설 내부 편의시설이라 지도 좌표만으로 접근 가능한 입구를 확정할 수 없음; POI 근거 부산남부경찰서문현2치안센터 12.5m,POI,12.5,[지도/POI 1차판정] 카카오 지도 근거 확인 / [좌표품질:INTERNAL] 건물/시설 내부 편의시설이라 지도 좌표만으로 접근 가능한 입구를 확정할 수 없음; POI 근거 부산남부경찰서문현2치안센터 12.5m / 카카오=바이탈필(13.0m); POI=부산남부경찰서문현2치안센터(12.5m),35.1461800,129.0671400,,,,,,,public_toilet:756,2426,,public_toilet:756,2026-04-27T16:09:24.750772+00:00,RENAME_REVIEW,KAKAO,KAKAO_MEDIUM,바이탈필,13.0,MATCH_STRONG,부산남부경찰서문현2치안센터,12.5
facility:2474,facility,2474,남구,문현3동행정복지센터,TOILET,KEEP,유지,INTERNAL,건물/시설 내부 편의시설이라 지도 좌표만으로 접근 가능한 입구를 확정할 수 없음; POI 근거 문현3동행정복지센터 13.8m,POI,13.8,[지도/POI 1차판정] 공중화장실/시설 POI 근거리 확인 / [좌표품질:INTERNAL] 건물/시설 내부 편의시설이라 지도 좌표만으로 접근 가능한 입구를 확정할 수 없음; POI 근거 문현3동행정복지센터 13.8m / 카카오=문현3동행정복지센터(13.3m); POI=문현3동행정복지센터(13.8m),35.1382700,129.0716900,,,,,,,public_toilet:854,2474,,public_toilet:854,2026-04-27T16:09:24.750772+00:00,CATEGORY_REVIEW,KAKAO,KAKAO_STRONG,문현3동행정복지센터,13.3,MATCH_STRONG,문현3동행정복지센터,13.8
facility:2454,facility,2454,남구,문현4동 주민복합센터,TOILET,KEEP,유지,INTERNAL,건물/시설 내부 편의시설이라 지도 좌표만으로 접근 가능한 입구를 확정할 수 없음; POI 근거 문현4동주민복합센터 17.7m,POI,17.7,[지도/POI 1차판정] 공중화장실/시설 POI 근거리 확인 / [좌표품질:INTERNAL] 건물/시설 내부 편의시설이라 지도 좌표만으로 접근 가능한 입구를 확정할 수 없음; POI 근거 문현4동주민복합센터 17.7m / 카카오=문현4동주민복합센터(16.9m); POI=문현4동주민복합센터(17.7m),35.1323300,129.0699200,,,,,,,public_toilet:805,2454,,public_toilet:805,2026-04-27T16:09:24.750772+00:00,CATEGORY_REVIEW,KAKAO,KAKAO_STRONG,문현4동주민복합센터,16.9,MATCH_STRONG,문현4동주민복합센터,17.7
facility:2472,facility,2472,남구,문현4동 체육공원,TOILET,KEEP,유지,INTERNAL,건물/시설 내부 편의시설이라 지도 좌표만으로 접근 가능한 입구를 확정할 수 없음; POI 근거 문현4동체육공원공중화장실입구 36.4m,POI,36.4,[지도/POI 1차판정] 공중화장실/시설 POI 근거리 확인 / [좌표품질:INTERNAL] 건물/시설 내부 편의시설이라 지도 좌표만으로 접근 가능한 입구를 확정할 수 없음; POI 근거 문현4동체육공원공중화장실입구 36.4m / 카카오=만리산체육공원(2138.5m); POI=문현4동체육공원공중화장실입구(36.4m),35.1322980,129.0713150,,,,,,,public_toilet:848,2472,,public_toilet:848,2026-04-27T16:09:24.750772+00:00,POI_ONLY_RECHECK,POI,KAKAO_NEARBY_ONLY,만리산체육공원,2138.5,MATCH_STRONG,문현4동체육공원공중화장실입구,36.4
facility:2477,facility,2477,남구,문현노인복지관,TOILET,KEEP,유지,INTERNAL,건물/시설 내부 편의시설이라 지도 좌표만으로 접근 가능한 입구를 확정할 수 없음; POI 근거 문현노인복지관 11.1m,POI,11.1,[지도/POI 1차판정] 공중화장실/시설 POI 근거리 확인 / [좌표품질:INTERNAL] 건물/시설 내부 편의시설이라 지도 좌표만으로 접근 가능한 입구를 확정할 수 없음; POI 근거 문현노인복지관 11.1m / 카카오=문현노인복지관(12.7m); POI=문현노인복지관(11.1m),35.1381300,129.0709100,,,,,,,public_toilet:857,2477,,public_toilet:857,2026-04-27T16:09:24.750772+00:00,CATEGORY_REVIEW,KAKAO,KAKAO_STRONG,문현노인복지관,12.7,MATCH_STRONG,문현노인복지관,11.1
facility:2371,facility,2371,남구,문현지구대 공중화장실,TOILET,KEEP,유지,INTERNAL,건물/시설 내부 편의시설이라 지도 좌표만으로 접근 가능한 입구를 확정할 수 없음; POI 근거 공중화장실 16.0m,POI,16.0,[지도/POI 1차판정] 카카오 지도 근거 확인 / [좌표품질:INTERNAL] 건물/시설 내부 편의시설이라 지도 좌표만으로 접근 가능한 입구를 확정할 수 없음; POI 근거 공중화장실 16.0m / 카카오=문현지구대(21.3m); POI=공중화장실(16.0m),35.1391200,129.0697900,,,,,,,public_toilet:668,2371,,public_toilet:668,2026-04-27T16:09:24.750772+00:00,RENAME_REVIEW,KAKAO,KAKAO_MEDIUM,문현지구대,21.3,MATCH_STRONG,공중화장실,16.0
facility:2369,facility,2369,남구,백운포체육공원(마사구장),TOILET,KEEP,유지,INTERNAL,건물/시설 내부 편의시설이라 지도 좌표만으로 접근 가능한 입구를 확정할 수 없음; POI 근거 백운포체육공원(마사구장)공중화장실입구 65.1m,POI,65.1,[지도/POI 1차판정] 카카오 지도 근거 확인 / [좌표품질:INTERNAL] 건물/시설 내부 편의시설이라 지도 좌표만으로 접근 가능한 입구를 확정할 수 없음; POI 근거 백운포체육공원(마사구장)공중화장실입구 65.1m / 카카오=남구시설관리공단 제3부설주차장(63.6m); POI=백운포체육공원(마사구장)공중화장실입구(65.1m),35.1028770,129.1120530,,,,,,,public_toilet:666,2369,,public_toilet:666,2026-04-27T16:09:24.750772+00:00,RENAME_REVIEW,KAKAO,KAKAO_MEDIUM,남구시설관리공단 제3부설주차장,63.6,MATCH_STRONG,백운포체육공원(마사구장)공중화장실입구,65.1
facility:2372,facility,2372,남구,백운포체육공원(인조잔디구장옆),TOILET,KEEP,유지,INTERNAL,건물/시설 내부 편의시설이라 지도 좌표만으로 접근 가능한 입구를 확정할 수 없음; POI 근거 백운포체육공원공중화장실입구 30.7m,POI,30.7,[지도/POI 1차판정] 공중화장실/시설 POI 근거리 확인 / [좌표품질:INTERNAL] 건물/시설 내부 편의시설이라 지도 좌표만으로 접근 가능한 입구를 확정할 수 없음; POI 근거 백운포체육공원공중화장실입구 30.7m / POI=백운포체육공원공중화장실입구(30.7m),35.1034820,129.1106910,,,,,,,public_toilet:670,2372,,public_toilet:670,2026-04-27T16:09:24.750772+00:00,POI_ONLY_RECHECK,POI,KAKAO_NO_RESULT,,,MATCH_STRONG,백운포체육공원공중화장실입구,30.7
facility:2458,facility,2458,남구,백운포체육공원(테니스장앞),TOILET,KEEP,유지,INTERNAL,건물/시설 내부 편의시설이라 지도 좌표만으로 접근 가능한 입구를 확정할 수 없음; POI 근거 백운포테니스장입구공중화장실입구 21.4m,POI,21.4,[지도/POI 1차판정] 공중화장실/시설 POI 근거리 확인 / [좌표품질:INTERNAL] 건물/시설 내부 편의시설이라 지도 좌표만으로 접근 가능한 입구를 확정할 수 없음; POI 근거 백운포테니스장입구공중화장실입구 21.4m / 카카오=남구국민체육센터 2관 하늘정원(167.9m); POI=백운포테니스장입구공중화장실입구(21.4m),35.1042900,129.1111410,,,,,,,public_toilet:813,2458,,public_toilet:813,2026-04-27T16:09:24.750772+00:00,POI_ONLY_RECHECK,POI,KAKAO_NEARBY_ONLY,남구국민체육센터 2관 하늘정원,167.9,MATCH_STRONG,백운포테니스장입구공중화장실입구,21.4
facility:2353,facility,2353,남구,부산 용당세관 화장실,TOILET,KEEP,유지,INTERNAL,건물/시설 내부 편의시설이라 지도 좌표만으로 접근 가능한 입구를 확정할 수 없음; POI 근거 공중화장실 45.9m,POI,45.9,[지도/POI 1차판정] 카카오 지도 근거 확인 / [좌표품질:INTERNAL] 건물/시설 내부 편의시설이라 지도 좌표만으로 접근 가능한 입구를 확정할 수 없음; POI 근거 공중화장실 45.9m / 카카오=용당세관(48.5m); POI=공중화장실(45.9m),35.1148800,129.0942400,,,,,,,public_toilet:638,2353,,public_toilet:638,2026-04-27T16:09:24.750772+00:00,RENAME_REVIEW,KAKAO,KAKAO_MEDIUM,용당세관,48.5,MATCH_STRONG,공중화장실,45.9
facility:2381,facility,2381,남구,부산감만동우체국(1층),TOILET,KEEP,유지,INTERNAL,건물/시설 내부 편의시설이라 지도 좌표만으로 접근 가능한 입구를 확정할 수 없음; POI 근거 부산감만동우체국 21.9m,POI,21.9,[지도/POI 1차판정] 공중화장실/시설 POI 근거리 확인 / [좌표품질:INTERNAL] 건물/시설 내부 편의시설이라 지도 좌표만으로 접근 가능한 입구를 확정할 수 없음; POI 근거 부산감만동우체국 21.9m / 카카오=부산감만동우체국(22.1m); POI=부산감만동우체국(21.9m),35.1182600,129.0809400,,,,,,,public_toilet:682,2381,,public_toilet:682,2026-04-27T16:09:24.750772+00:00,CATEGORY_REVIEW,KAKAO,KAKAO_STRONG,부산감만동우체국,22.1,MATCH_STRONG,부산감만동우체국,21.9
facility:2413,facility,2413,남구,부산광역시 여성회관 화장실,TOILET,KEEP,유지,INTERNAL,건물/시설 내부 편의시설이라 지도 좌표만으로 접근 가능한 입구를 확정할 수 없음; POI 근거 공중화장실 8.8m,POI,8.8,[지도/POI 1차판정] 카카오 지도 근거 확인 / [좌표품질:INTERNAL] 건물/시설 내부 편의시설이라 지도 좌표만으로 접근 가능한 입구를 확정할 수 없음; POI 근거 공중화장실 8.8m / 카카오=부산시여성회관작은도서관(4.7m); POI=공중화장실(8.8m),35.1391303,129.1045446,,,,,,,public_toilet:740,2413,,public_toilet:740,2026-04-27T16:09:24.750772+00:00,RENAME_REVIEW,KAKAO,KAKAO_MEDIUM,부산시여성회관작은도서관,4.7,MATCH_STRONG,공중화장실,8.8
facility:2449,facility,2449,남구,부산남구문화원 2층,TOILET,KEEP,유지,INTERNAL,건물/시설 내부 편의시설이라 지도 좌표만으로 접근 가능한 입구를 확정할 수 없음; POI 근거 남구문화원 22.6m,POI,22.6,[지도/POI 1차판정] 공중화장실/시설 POI 근거리 확인 / [좌표품질:INTERNAL] 건물/시설 내부 편의시설이라 지도 좌표만으로 접근 가능한 입구를 확정할 수 없음; POI 근거 남구문화원 22.6m / 카카오=부산 남구문화원(17.0m); POI=남구문화원(22.6m),35.1307000,129.1122100,,,,,,,public_toilet:798,2449,,public_toilet:798,2026-04-27T16:09:24.750772+00:00,CATEGORY_REVIEW,KAKAO,KAKAO_STRONG,부산 남구문화원,17.0,MATCH_STRONG,남구문화원,22.6
facility:2386,facility,2386,남구,부산남구문화원 3층,TOILET,KEEP,유지,INTERNAL,건물/시설 내부 편의시설이라 지도 좌표만으로 접근 가능한 입구를 확정할 수 없음; POI 근거 남구문화원 22.6m,POI,22.6,[지도/POI 1차판정] 공중화장실/시설 POI 근거리 확인 / [좌표품질:INTERNAL] 건물/시설 내부 편의시설이라 지도 좌표만으로 접근 가능한 입구를 확정할 수 없음; POI 근거 남구문화원 22.6m / 카카오=부산 남구문화원(17.0m); POI=남구문화원(22.6m),35.1307000,129.1122100,,,,,,,public_toilet:688,2386,,public_toilet:688,2026-04-27T16:09:24.750772+00:00,CATEGORY_REVIEW,KAKAO,KAKAO_STRONG,부산 남구문화원,17.0,MATCH_STRONG,남구문화원,22.6
facility:2354,facility,2354,남구,부산대연4동우체국(1층),TOILET,KEEP,유지,INTERNAL,건물/시설 내부 편의시설이라 지도 좌표만으로 접근 가능한 입구를 확정할 수 없음; POI 근거 부산대연4동우체국 22.9m,POI,22.9,[지도/POI 1차판정] 공중화장실/시설 POI 근거리 확인 / [좌표품질:INTERNAL] 건물/시설 내부 편의시설이라 지도 좌표만으로 접근 가능한 입구를 확정할 수 없음; POI 근거 부산대연4동우체국 22.9m / 카카오=부산대연4동우체국(22.9m); POI=부산대연4동우체국(22.9m),35.1274900,129.0901900,,,,,,,public_toilet:640,2354,,public_toilet:640,2026-04-27T16:09:24.750772+00:00,CATEGORY_REVIEW,KAKAO,KAKAO_STRONG,부산대연4동우체국,22.9,MATCH_STRONG,부산대연4동우체국,22.9
facility:2352,facility,2352,남구,부산대연우체국(1층),TOILET,KEEP,유지,INTERNAL,건물/시설 내부 편의시설이라 지도 좌표만으로 접근 가능한 입구를 확정할 수 없음; POI 근거 부산대연우체국 20.4m,POI,20.4,[지도/POI 1차판정] 공중화장실/시설 POI 근거리 확인 / [좌표품질:INTERNAL] 건물/시설 내부 편의시설이라 지도 좌표만으로 접근 가능한 입구를 확정할 수 없음; POI 근거 부산대연우체국 20.4m / 카카오=부산대연우체국(20.3m); POI=부산대연우체국(20.4m),35.1359100,129.0931900,,,,,,,public_toilet:636,2352,,public_toilet:636,2026-04-27T16:09:24.750772+00:00,CATEGORY_REVIEW,KAKAO,KAKAO_STRONG,부산대연우체국,20.3,MATCH_STRONG,부산대연우체국,20.4
facility:2479,facility,2479,남구,부산문현동우체국(1층),TOILET,KEEP,유지,INTERNAL,건물/시설 내부 편의시설이라 지도 좌표만으로 접근 가능한 입구를 확정할 수 없음; POI 근거 부산문현동우체국 21.6m,POI,21.6,[지도/POI 1차판정] 공중화장실/시설 POI 근거리 확인 / [좌표품질:INTERNAL] 건물/시설 내부 편의시설이라 지도 좌표만으로 접근 가능한 입구를 확정할 수 없음; POI 근거 부산문현동우체국 21.6m / 카카오=부산문현동우체국(22.0m); POI=부산문현동우체국(21.6m),35.1360100,129.0733900,,,,,,,public_toilet:859,2479,,public_toilet:859,2026-04-27T16:09:24.750772+00:00,CATEGORY_REVIEW,KAKAO,KAKAO_STRONG,부산문현동우체국,22.0,MATCH_STRONG,부산문현동우체국,21.6
facility:2407,facility,2407,남구,부산문화회관 다듬채,TOILET,KEEP,유지,INTERNAL,건물/시설 내부 편의시설이라 지도 좌표만으로 접근 가능한 입구를 확정할 수 없음; POI 근거 부산문화회관 16.6m,POI,16.6,[지도/POI 1차판정] 공중화장실/시설 POI 근거리 확인 / [좌표품질:INTERNAL] 건물/시설 내부 편의시설이라 지도 좌표만으로 접근 가능한 입구를 확정할 수 없음; POI 근거 부산문화회관 16.6m / 카카오=부산문화회관 다듬채(12.6m); POI=부산문화회관(16.6m),35.1267636,129.0929446,,,,,,,public_toilet:729,2407,,public_toilet:729,2026-04-27T16:09:24.750772+00:00,CATEGORY_REVIEW,KAKAO,KAKAO_STRONG,부산문화회관 다듬채,12.6,MATCH_STRONG,부산문화회관,16.6
facility:2380,facility,2380,남구,부산문화회관 대극장,TOILET,KEEP,유지,INTERNAL,건물/시설 내부 편의시설이라 지도 좌표만으로 접근 가능한 입구를 확정할 수 없음; POI 근거 부산문화회관 7.1m,POI,7.1,[지도/POI 1차판정] 공중화장실/시설 POI 근거리 확인 / [좌표품질:INTERNAL] 건물/시설 내부 편의시설이라 지도 좌표만으로 접근 가능한 입구를 확정할 수 없음; POI 근거 부산문화회관 7.1m / 카카오=부산문화회관 대극장(12.4m); POI=부산문화회관(7.1m),35.1273138,129.0934680,,,,,,,public_toilet:681,2380,,public_toilet:681,2026-04-27T16:09:24.750772+00:00,CATEGORY_REVIEW,KAKAO,KAKAO_STRONG,부산문화회관 대극장,12.4,MATCH_STRONG,부산문화회관,7.1
facility:2432,facility,2432,남구,부산문화회관 부설주차장,TOILET,KEEP,유지,INTERNAL,건물/시설 내부 편의시설이라 지도 좌표만으로 접근 가능한 입구를 확정할 수 없음; POI 근거 공중화장실 18.8m,POI,18.8,[지도/POI 1차판정] 공중화장실/시설 POI 근거리 확인 / [좌표품질:INTERNAL] 건물/시설 내부 편의시설이라 지도 좌표만으로 접근 가능한 입구를 확정할 수 없음; POI 근거 공중화장실 18.8m / 카카오=부산문화회관 부설주차장(22.4m); POI=공중화장실(18.8m),35.1260629,129.0928445,,,,,,,public_toilet:766,2432,,public_toilet:766,2026-04-27T16:09:24.750772+00:00,CATEGORY_REVIEW,KAKAO,KAKAO_STRONG,부산문화회관 부설주차장,22.4,MATCH_STRONG,공중화장실,18.8
facility:2455,facility,2455,남구,부산문화회관 사랑채,TOILET,KEEP,유지,INTERNAL,건물/시설 내부 편의시설이라 지도 좌표만으로 접근 가능한 입구를 확정할 수 없음; POI 근거 부산문화회관 5.3m,POI,5.3,[지도/POI 1차판정] 공중화장실/시설 POI 근거리 확인 / [좌표품질:INTERNAL] 건물/시설 내부 편의시설이라 지도 좌표만으로 접근 가능한 입구를 확정할 수 없음; POI 근거 부산문화회관 5.3m / 카카오=부산문화회관 사랑채극장(9.6m); POI=부산문화회관(5.3m),35.1278979,129.0936366,,,,,,,public_toilet:806,2455,,public_toilet:806,2026-04-27T16:09:24.750772+00:00,CATEGORY_REVIEW,KAKAO,KAKAO_STRONG,부산문화회관 사랑채극장,9.6,MATCH_STRONG,부산문화회관,5.3
facility:2400,facility,2400,남구,부산문화회관 전시실,TOILET,KEEP,유지,INTERNAL,건물/시설 내부 편의시설이라 지도 좌표만으로 접근 가능한 입구를 확정할 수 없음; POI 근거 부산문화회관 7.1m,POI,7.1,[지도/POI 1차판정] 공중화장실/시설 POI 근거리 확인 / [좌표품질:INTERNAL] 건물/시설 내부 편의시설이라 지도 좌표만으로 접근 가능한 입구를 확정할 수 없음; POI 근거 부산문화회관 7.1m / 카카오=부산문화회관 전시실(18.8m); POI=부산문화회관(7.1m),35.1273138,129.0934680,,,,,,,public_toilet:713,2400,,public_toilet:713,2026-04-27T16:09:24.750772+00:00,CATEGORY_REVIEW,KAKAO,KAKAO_STRONG,부산문화회관 전시실,18.8,MATCH_STRONG,부산문화회관,7.1
facility:2439,facility,2439,남구,부산문화회관 중극장,TOILET,KEEP,유지,INTERNAL,건물/시설 내부 편의시설이라 지도 좌표만으로 접근 가능한 입구를 확정할 수 없음; POI 근거 부산문화회관 26.2m,POI,26.2,[지도/POI 1차판정] 공중화장실/시설 POI 근거리 확인 / [좌표품질:INTERNAL] 건물/시설 내부 편의시설이라 지도 좌표만으로 접근 가능한 입구를 확정할 수 없음; POI 근거 부산문화회관 26.2m / 카카오=부산문화회관 중극장(12.2m); POI=부산문화회관(26.2m),35.1269388,129.0942594,,,,,,,public_toilet:783,2439,,public_toilet:783,2026-04-27T16:09:24.750772+00:00,CATEGORY_REVIEW,KAKAO,KAKAO_STRONG,부산문화회관 중극장,12.2,MATCH_STRONG,부산문화회관,26.2
facility:2382,facility,2382,남구,부산문화회관 챔버홀,TOILET,KEEP,유지,INTERNAL,건물/시설 내부 편의시설이라 지도 좌표만으로 접근 가능한 입구를 확정할 수 없음; POI 근거 부산문화회관 5.3m,POI,5.3,[지도/POI 1차판정] 공중화장실/시설 POI 근거리 확인 / [좌표품질:INTERNAL] 건물/시설 내부 편의시설이라 지도 좌표만으로 접근 가능한 입구를 확정할 수 없음; POI 근거 부산문화회관 5.3m / 카카오=부산문화회관 챔버홀(20.6m); POI=부산문화회관(5.3m),35.1278979,129.0936366,,,,,,,public_toilet:683,2382,,public_toilet:683,2026-04-27T16:09:24.750772+00:00,CATEGORY_REVIEW,KAKAO,KAKAO_STRONG,부산문화회관 챔버홀,20.6,MATCH_STRONG,부산문화회관,5.3
facility:2444,facility,2444,남구,부산박물관 동래관1층,TOILET,KEEP,유지,INTERNAL,건물/시설 내부 편의시설이라 지도 좌표만으로 접근 가능한 입구를 확정할 수 없음; POI 근거 부산박물관.동래관 17.5m,POI,17.5,[지도/POI 1차판정] 공중화장실/시설 POI 근거리 확인 / [좌표품질:INTERNAL] 건물/시설 내부 편의시설이라 지도 좌표만으로 접근 가능한 입구를 확정할 수 없음; POI 근거 부산박물관.동래관 17.5m / 카카오=부산박물관 동래관(21.5m); POI=부산박물관.동래관(17.5m),35.1295608,129.0940856,,,,,,,public_toilet:789,2444,,public_toilet:789,2026-04-27T16:09:24.750772+00:00,CATEGORY_REVIEW,KAKAO,KAKAO_STRONG,부산박물관 동래관,21.5,MATCH_STRONG,부산박물관.동래관,17.5
